;codigo_ibge;codigo;municipio;uf;codigo_uf;capital;latitude;longitude;UTI adulto I;UTI adulto II;UTI adulto III;UTI coronariana tipo II -UCO tipo II;UTI coronariana tipo III - UCO tipo III;UTI de Queimados;UTI pediátrica I;UTI pediátrica II;UTI pediátrica III;Unidade isolamento;Total
0;3550308.0;355030;São Paulo;SP;35;1.0;-23.5329;-46.6395;1406;822;1125;109;10;36;243;190;326;358;4625
1;3304557.0;330455;Rio de Janeiro;RJ;33;1.0;-22.9129;-43.2003;980;647;640;33;18;27;79;141;58;169;2792
2;3106200.0;310620;Belo Horizonte;MG;31;1.0;-19.9102;-43.9266;170;725;175;38;0;11;52;79;43;64;1357
3;5300108.0;530010;Brasília;DF;53;1.0;-15.7795;-47.9297;353;418;146;34;34;14;34;106;28;85;1252
4;2611606.0;261160;Recife;PE;26;1.0;-8.046660000000001;-34.8771;224;516;133;47;0;2;25;99;23;75;1144
5;2927408.0;292740;Salvador;BA;29;1.0;-12.9718;-38.5011;9;703;173;8;21;4;0;125;12;75;1130
6;4314902.0;431490;Porto Alegre;RS;43;1.0;-30.0318;-51.2065;42;117;451;0;8;4;0;35;100;118;875
7;5208707.0;520870;Goiânia;GO;52;1.0;-16.6864;-49.2643;146;474;10;20;0;15;15;86;0;52;818
8;2304400.0;230440;Fortaleza;CE;23;1.0;-3.71664;-38.5423;73;386;83;18;13;0;8;89;8;49;727
9;4106902.0;410690;Curitiba;PR;41;1.0;-25.4195;-49.2646;47;256;169;0;0;5;0;7;64;68;616
10;1302603.0;130260;Manaus;AM;13;1.0;-3.11866;-60.0212;46;197;28;10;10;0;17;118;5;116;547
11;3509502.0;350950;Campinas;SP;35;0.0;-22.9053;-47.0659;130;174;79;20;0;0;19;21;36;27;506
12;1501402.0;150140;Belém;PA;15;1.0;-1.4554;-48.4898;101;215;26;10;10;0;10;45;18;71;506
13;5103403.0;510340;Cuiabá;MT;51;1.0;-15.601;-56.0974;71;221;46;16;0;0;16;48;8;34;460
14;2111300.0;211130;São Luís;MA;21;1.0;-2.53874;-44.2825;113;219;25;0;0;0;0;19;30;18;424
15;2408102.0;240810;Natal;RN;24;1.0;-5.79357;-35.1986;71;196;19;7;0;0;4;38;0;26;361
16;2507507.0;250750;João Pessoa;PB;25;1.0;-7.11509;-34.8641;8;145;61;20;5;6;4;42;9;48;348
17;3547809.0;354780;Santo André;SP;35;0.0;-23.6737;-46.5432;174;113;12;0;0;0;13;17;0;14;343
18;4104204.0;410420;Campo Largo;PR;41;0.0;-25.4525;-49.529;0;266;25;10;0;0;0;25;12;0;338
19;5002704.0;500270;Campo Grande;MS;50;1.0;-20.4486;-54.6295;17;115;92;23;16;0;0;22;16;8;309
20;3303302.0;330330;Niterói;RJ;33;0.0;-22.8832;-43.1034;103;81;36;20;10;0;22;10;0;26;308
21;3548708.0;354870;São Bernardo do Campo;SP;35;0.0;-23.6914;-46.5646;71;34;114;8;0;0;12;7;10;28;284
22;3549805.0;354980;São José do Rio Preto;SP;35;0.0;-20.8113;-49.3758;26;57;129;0;14;0;0;6;39;4;275
23;2800308.0;280030;Aracaju;SE;28;1.0;-10.9091;-37.0677;56;118;57;0;0;0;2;17;3;21;274
24;3549904.0;354990;São José dos Campos;SP;35;0.0;-23.1896;-45.8841;18;116;66;14;2;5;3;19;5;18;266
25;3170206.0;317020;Uberlândia;MG;31;0.0;-18.9141;-48.2749;0;140;52;15;19;2;0;9;13;13;263
26;3301009.0;330100;Campos dos Goytacazes;RJ;33;0.0;-21.7622;-41.3181;4;173;31;0;0;0;1;10;16;14;249
27;3205309.0;320530;Vitória;ES;32;1.0;-20.3155;-40.3128;25;150;0;8;0;6;28;18;0;12;247
28;3543402.0;354340;Ribeirão Preto;SP;35;0.0;-21.1699;-47.8099;43;70;42;16;0;2;18;3;23;28;245
29;3548500.0;354850;Santos;SP;35;0.0;-23.9535;-46.335;55;63;79;10;0;0;5;16;10;5;243
30;3548807.0;354880;São Caetano do Sul;SP;35;0.0;-23.6229;-46.5548;109;60;36;0;0;0;18;10;0;8;241
31;4113700.0;411370;Londrina;PR;41;0.0;-23.304;-51.1691;61;12;102;0;0;7;9;0;27;18;236
32;3136702.0;313670;Juiz de Fora;MG;31;0.0;-21.7595;-43.3398;4;156;30;20;0;0;0;18;0;4;232
33;2704302.0;270430;Maceió;AL;27;1.0;-9.66599;-35.735;42;121;11;0;0;0;4;29;4;19;230
34;4205407.0;420540;Florianópolis;SC;42;1.0;-27.5945;-48.5477;37;66;62;0;0;6;6;20;0;32;229
35;3301702.0;330170;Duque de Caxias;RJ;33;0.0;-22.7858;-43.3049;25;77;38;12;0;0;10;11;36;16;225
36;2211001.0;221100;Teresina;PI;22;1.0;-5.09194;-42.8034;25;96;28;0;0;0;0;32;2;37;220
37;3552205.0;355220;Sorocaba;SP;35;0.0;-23.4969;-47.4451;24;114;30;0;0;3;6;18;10;13;218
38;3518800.0;351880;Guarulhos;SP;35;0.0;-23.4538;-46.5333;55;108;0;0;0;0;7;34;0;14;218
39;1100205.0;110020;Porto Velho;RO;11;1.0;-8.760769999999999;-63.8999;26;138;0;3;0;0;3;24;0;10;204
40;4115200.0;411520;Maringá;PR;41;0.0;-23.4205;-51.9333;17;126;13;11;10;0;0;19;0;4;200
41;3205002.0;320500;Serra;ES;32;0.0;-20.121;-40.3074;0;155;0;9;0;8;0;5;0;3;180
42;3304904.0;330490;São Gonçalo;RJ;33;0.0;-22.8268;-43.0634;41;94;10;0;0;0;10;17;0;6;178
43;3303906.0;330390;Petrópolis;RJ;33;0.0;-22.52;-43.1926;25;70;62;0;0;0;2;0;3;14;176
44;2504009.0;250400;Campina Grande;PB;25;0.0;-7.22196;-35.8731;38;88;0;0;0;0;16;14;0;9;165
45;3538709.0;353870;Piracicaba;SP;35;0.0;-22.7338;-47.6476;22;41;54;20;0;0;0;5;9;12;163
46;3306305.0;330630;Volta Redonda;RJ;33;0.0;-22.5202;-44.0996;12;102;4;0;0;2;6;20;0;10;156
47;3530607.0;353060;Mogi das Cruzes;SP;35;0.0;-23.5208;-46.1854;30;48;0;10;0;0;6;37;0;19;150
48;4209102.0;420910;Joinville;SC;42;0.0;-26.3045;-48.8487;28;49;19;0;0;2;5;20;0;23;146
49;4104808.0;410480;Cascavel;PR;41;0.0;-24.9573;-53.459;30;86;0;3;0;0;3;12;0;10;144
50;3506003.0;350600;Bauru;SP;35;0.0;-22.3246;-49.0871;32;68;0;9;0;4;4;20;0;5;142
51;2105302.0;210530;Imperatriz;MA;21;0.0;-5.51847;-47.4777;0;104;0;0;0;0;0;19;0;12;135
52;3525904.0;352590;Jundiaí;SP;35;0.0;-23.1852;-46.8974;0;90;4;5;5;1;0;14;7;4;130
53;3534401.0;353440;Osasco;SP;35;0.0;-23.5324;-46.7916;20;88;0;0;0;0;10;8;0;3;129
54;2312908.0;231290;Sobral;CE;23;0.0;-3.689130000000002;-40.3482;0;83;0;10;0;0;10;20;0;0;123
55;2933307.0;293330;Vitória da Conquista;BA;29;0.0;-14.8615;-40.8442;0;94;0;0;0;0;0;15;0;13;122
56;2604106.0;260410;Caruaru;PE;26;0.0;-8.28455;-35.9699;0;81;0;10;0;0;0;10;0;21;122
57;4305108.0;430510;Caxias do Sul;RS;43;0.0;-29.1629;-51.1792;10;86;0;4;0;0;0;15;5;0;120
58;5201108.0;520110;Anápolis;GO;52;0.0;-16.3281;-48.953;0;88;0;0;0;3;0;24;0;4;119
59;1721000.0;172100;Palmas;TO;17;1.0;-10.24;-48.3558;18;36;21;1;0;6;0;18;9;9;118
60;2408003.0;240800;Mossoró;RN;24;0.0;-5.18374;-37.3474;0;105;0;0;0;0;0;10;0;0;115
61;3205200.0;320520;Vila Velha;ES;32;0.0;-20.3417;-40.2875;0;86;0;10;0;0;0;15;0;3;114
62;2700300.0;270030;Arapiraca;AL;27;0.0;-9.75487;-36.6615;25;35;30;0;10;0;0;10;0;1;111
63;4316907.0;431690;Santa Maria;RS;43;0.0;-29.6868;-53.8149;0;56;40;0;0;0;0;14;0;0;110
64;3541406.0;354140;Presidente Prudente;SP;35;0.0;-22.1207;-51.3925;28;50;0;0;0;1;6;0;0;25;110
65;3303500.0;330350;Nova Iguaçu;RJ;33;0.0;-22.7556;-43.4603;22;46;0;0;0;0;20;5;9;7;109
66;3529005.0;352900;Marília;SP;35;0.0;-22.2171;-49.9501;0;83;0;2;0;2;0;13;0;7;107
67;4304606.0;430460;Canoas;RS;43;0.0;-29.9128;-51.1857;0;28;37;0;0;0;0;0;10;26;101
68;3302205.0;330220;Itaperuna;RJ;33;0.0;-21.1997;-41.8799;0;65;27;0;0;0;0;4;0;2;98
69;4314407.0;431440;Pelotas;RS;43;0.0;-31.7649;-52.3371;5;67;0;0;0;0;0;10;0;16;98
70;1500800.0;150080;Ananindeua;PA;15;0.0;-1.36391;-48.3743;0;66;0;0;0;2;0;15;0;13;96
71;3170107.0;317010;Uberaba;MG;31;0.0;-19.7472;-47.9381;0;63;10;0;0;0;0;14;0;8;95
72;3201209.0;320120;Cachoeiro de Itapemirim;ES;32;0.0;-20.8462;-41.1198;7;61;0;0;0;0;1;23;0;3;95
73;2910800.0;291080;Feira de Santana;BA;29;0.0;-12.2664;-38.9663;16;40;0;0;0;0;0;28;0;11;95
74;5201405.0;520140;Aparecida de Goiânia;GO;52;0.0;-16.8198;-49.2469;10;59;0;4;0;0;0;18;0;3;94
75;3302403.0;330240;Macaé;RJ;33;0.0;-22.3768;-41.7848;17;47;10;0;0;0;5;6;0;9;94
76;4314100.0;431410;Passo Fundo;RS;43;0.0;-28.2576;-52.4091;9;60;10;0;0;0;0;13;0;0;92
77;3143302.0;314330;Montes Claros;MG;31;0.0;-16.7282;-43.8578;0;81;0;0;0;6;0;4;0;0;91
78;4119905.0;411990;Ponta Grossa;PR;41;0.0;-25.0916;-50.1668;0;71;0;0;0;0;0;4;0;15;90
79;3505500.0;350550;Barretos;SP;35;0.0;-20.5531;-48.5698;18;26;30;0;0;0;0;0;8;6;88
80;2610707.0;261070;Paulista;PE;26;0.0;-7.934010000000002;-34.8684;10;75;0;0;0;0;0;0;0;3;88
81;3524402.0;352440;Jacareí;SP;35;0.0;-23.2983;-45.9658;9;60;0;0;0;0;0;13;0;3;85
82;5003702.0;500370;Dourados;MS;50;0.0;-22.2231;-54.812;15;54;0;0;0;0;1;10;0;4;84
83;3151800.0;315180;Poços de Caldas;MG;31;0.0;-21.78;-46.5692;11;55;0;0;0;0;6;2;0;9;83
84;2611101.0;261110;Petrolina;PE;26;0.0;-9.38866;-40.5027;9;58;0;4;0;0;2;8;0;1;82
85;4202404.0;420240;Blumenau;SC;42;0.0;-26.9155;-49.0709;0;25;40;0;0;0;0;10;5;0;80
86;4104006.0;410400;Campina Grande do Sul;PR;41;0.0;-25.3044;-49.0551;0;58;0;10;0;0;0;10;0;2;80
87;3122306.0;312230;Divinópolis;MG;31;0.0;-20.1446;-44.8912;17;39;20;0;0;0;0;2;2;0;80
88;4101507.0;410150;Arapongas;PR;41;0.0;-23.4153;-51.4259;0;11;68;0;0;0;0;0;0;0;79
89;3143906.0;314390;Muriaé;MG;31;0.0;-21.13;-42.3693;0;63;0;0;0;0;0;6;0;8;77
90;3144805.0;314480;Nova Lima;MG;31;0.0;-19.9758;-43.8509;0;27;20;0;0;0;0;11;9;10;77
91;3127701.0;312770;Governador Valadares;MG;31;0.0;-18.8545;-41.9555;29;38;0;0;0;0;0;0;0;7;74
92;3526902.0;352690;Limeira;SP;35;0.0;-22.566;-47.397;17;35;0;0;0;12;0;7;0;2;73
93;4108304.0;410830;Foz do Iguaçu;PR;41;0.0;-25.5427;-54.5827;0;58;0;0;0;0;0;8;0;5;71
94;1200401.0;120040;Rio Branco;AC;12;1.0;-9.97499;-67.8243;0;41;0;0;0;0;0;11;0;19;71
95;3118601.0;311860;Contagem;MG;31;0.0;-19.9321;-44.0539;0;55;0;0;0;0;0;10;0;5;70
96;3148004.0;314800;Patos de Minas;MG;31;0.0;-18.5699;-46.5013;7;59;0;0;0;0;0;3;0;0;69
97;4216602.0;421660;São José;SC;42;0.0;-27.6136;-48.6366;0;33;20;0;0;0;0;0;9;6;68
98;3300704.0;330070;Cabo Frio;RJ;33;0.0;-22.8894;-42.0286;33;22;0;0;0;0;0;2;0;11;68
99;4128104.0;412810;Umuarama;PR;41;0.0;-23.7656;-53.3201;0;54;0;3;0;0;0;4;0;7;68
100;3518404.0;351840;Guaratinguetá;SP;35;0.0;-22.8075;-45.1938;0;54;0;2;0;6;3;0;0;2;67
101;1600303.0;160030;Macapá;ap;16;1.0;0.034934;-51.0694;20;20;0;0;0;0;0;10;0;17;67
102;5107602.0;510760;Rondonópolis;MT;51;0.0;-16.4673;-54.6372;0;49;0;0;0;0;0;10;0;6;65
103;3304201.0;330420;Resende;RJ;33;0.0;-22.4705;-44.4509;0;19;16;0;6;0;0;5;0;19;65
104;3201506.0;320150;Colatina;ES;32;0.0;-19.5493;-40.6269;8;44;0;0;0;0;4;0;0;9;65
105;3513801.0;351380;Diadema;SP;35;0.0;-23.6813;-46.6205;12;28;0;0;0;0;9;9;0;6;64
106;2513703.0;251370;Santa Rita;PB;25;0.0;-7.11724;-34.9753;0;30;0;10;0;0;0;10;0;12;62
107;3525300.0;352530;Jaú;SP;35;0.0;-22.2936;-48.5592;0;55;0;0;0;0;0;6;0;1;62
108;3554102.0;355410;Taubaté;SP;35;0.0;-23.0104;-45.5593;9;40;0;0;0;0;0;13;0;0;62
109;3529401.0;352940;Mauá;SP;35;0.0;-23.6677;-46.4613;8;48;0;0;0;0;0;4;0;1;61
110;3548906.0;354890;São Carlos;SP;35;0.0;-22.0174;-47.886;4;30;9;0;0;0;0;5;2;11;61
111;3518701.0;351870;Guarujá;SP;35;0.0;-23.9888;-46.258;0;38;12;0;0;0;0;4;0;7;61
112;3516200.0;351620;Franca;SP;35;0.0;-20.5352;-47.4039;8;10;28;0;0;0;2;5;5;3;61
113;3106705.0;310670;Betim;MG;31;0.0;-19.9668;-44.2008;0;39;0;0;0;0;0;18;0;3;60
114;4204608.0;420460;Criciúma;SC;42;0.0;-28.6723;-49.3729;0;54;0;0;0;0;0;3;0;2;59
115;3201308.0;320130;Cariacica;ES;32;0.0;-20.2632;-40.4165;6;38;0;10;0;2;0;0;0;2;58
116;3131307.0;313130;Ipatinga;MG;31;0.0;-19.4703;-42.5476;0;40;10;0;0;0;0;5;0;3;58
117;2307304.0;230730;Juazeiro do Norte;CE;23;0.0;-7.1962100000000015;-39.3076;6;50;0;0;0;0;0;0;0;2;58
118;3204906.0;320490;São Mateus;ES;32;0.0;-18.7214;-39.8579;19;19;0;10;0;0;5;0;0;4;57
119;3300407.0;330040;Barra Mansa;RJ;33;0.0;-22.5481;-44.1752;25;18;0;0;0;0;0;7;0;6;56
120;5214507.0;521450;Nerópolis;GO;52;0.0;-16.4047;-49.2227;0;50;0;0;0;0;0;0;0;5;55
121;2914802.0;291480;Itabuna;BA;29;0.0;-14.7876;-39.2781;0;29;0;13;0;0;0;10;0;3;55
122;2913606.0;291360;Ilhéus;BA;29;0.0;-14.793;-39.046;0;52;0;0;0;0;0;0;0;3;55
123;2607901.0;260790;Jaboatão dos Guararapes;PE;26;0.0;-8.11298;-35.015;5;50;0;0;0;0;0;0;0;0;55
124;1400100.0;140010;Boa Vista;RR;14;1.0;2.82384;-60.6753;5;20;0;0;0;0;0;11;0;18;54
125;3505708.0;350570;Barueri;SP;35;0.0;-23.5057;-46.879;13;20;0;0;0;0;2;8;0;10;53
126;3507605.0;350760;Bragança Paulista;SP;35;0.0;-22.9527;-46.5419;10;30;0;0;0;0;0;4;0;8;52
127;3556206.0;355620;Valinhos;SP;35;0.0;-22.9698;-46.9974;46;0;0;0;0;0;3;0;0;2;51
128;3147907.0;314790;Passos;MG;31;0.0;-20.7193;-46.609;0;37;0;10;0;0;0;4;0;0;51
129;4310207.0;431020;Ijuí;RS;43;0.0;-28.388;-53.92;10;24;0;4;0;0;0;4;0;9;51
130;4218707.0;421870;Tubarão;SC;42;0.0;-28.4713;-49.0144;10;30;0;0;0;0;2;0;4;5;51
131;4315602.0;431560;Rio Grande;RS;43;0.0;-32.0349;-52.1071;0;34;0;2;0;0;0;10;0;5;51
132;3152501.0;315250;Pouso Alegre;MG;31;0.0;-22.2266;-45.9389;5;35;0;0;0;0;0;10;0;1;51
133;3105608.0;310560;Barbacena;MG;31;0.0;-21.2214;-43.7703;0;40;0;0;0;0;0;2;0;8;50
134;4313409.0;431340;Novo Hamburgo;RS;43;0.0;-29.6875;-51.1328;5;29;10;0;0;0;0;6;0;0;50
135;5218805.0;521880;Rio Verde;GO;52;0.0;-17.7923;-50.9192;0;45;0;0;0;0;0;0;0;5;50
136;3511102.0;351110;Catanduva;SP;35;0.0;-21.1314;-48.977;0;33;0;2;0;3;0;9;0;0;47
137;1702109.0;170210;Araguaína;TO;17;0.0;-7.19238;-48.2044;0;29;0;0;0;6;0;11;0;0;46
138;2919207.0;291920;Lauro de Freitas;BA;29;0.0;-12.8978;-38.321;33;10;0;0;0;0;0;0;0;3;46
139;3170701.0;317070;Varginha;MG;31;0.0;-21.5556;-45.4364;2;44;0;0;0;0;0;0;0;0;46
140;5108402.0;510840;Várzea Grande;MT;51;0.0;-15.6458;-56.1322;0;33;0;0;0;0;0;3;0;9;45
141;2207702.0;220770;Parnaíba;PI;22;0.0;-2.90585;-41.7754;11;32;0;0;0;0;0;0;0;2;45
142;3522505.0;352250;Itapevi;SP;35;0.0;-23.5488;-46.9327;0;25;0;0;0;0;0;10;0;10;45
143;2928703.0;292870;Santo Antônio de Jesus;BA;29;0.0;-12.9614;-39.2584;10;32;0;0;0;0;0;0;0;2;44
144;3502804.0;350280;Araçatuba;SP;35;0.0;-21.2076;-50.4401;8;20;0;0;0;0;5;3;0;8;44
145;2610004.0;261000;Palmares;PE;26;0.0;-8.68423;-35.589;0;30;0;0;0;0;0;5;0;9;44
146;2602902.0;260290;Cabo de Santo Agostinho;PE;26;0.0;-8.28218;-35.0253;10;30;0;0;0;0;0;0;0;4;44
147;4208203.0;420820;Itajaí;SC;42;0.0;-26.9101;-48.6705;0;30;0;0;0;1;0;8;0;4;43
148;3507506.0;350750;Botucatu;SP;35;0.0;-22.8837;-48.4437;5;0;30;0;0;0;0;0;7;1;43
149;3543907.0;354390;Rio Claro;SP;35;0.0;-22.3984;-47.5546;4;30;0;0;0;0;0;4;0;5;43
150;3520509.0;352050;Indaiatuba;SP;35;0.0;-23.0816;-47.2101;14;23;0;0;0;0;6;0;0;0;43
151;3501608.0;350160;Americana;SP;35;0.0;-22.7374;-47.3331;0;27;9;0;0;0;0;6;0;0;42
152;3203205.0;320320;Linhares;ES;32;0.0;-19.3946;-40.0643;10;18;0;10;0;0;0;0;0;4;42
153;3101607.0;310160;Alfenas;MG;31;0.0;-21.4256;-45.9477;7;20;0;0;0;0;0;10;0;5;42
154;1506807.0;150680;Santarém;PA;15;0.0;-2.4384900000000003;-54.6996;0;27;0;0;0;0;0;10;0;4;41
155;2609600.0;260960;Olinda;PE;26;0.0;-8.01017;-34.8545;0;25;0;16;0;0;0;0;0;0;41
156;4108403.0;410840;Francisco Beltrão;PR;41;0.0;-26.0817;-53.0535;0;35;0;0;0;0;0;0;0;5;40
157;4109401.0;410940;Guarapuava;PR;41;0.0;-25.3902;-51.4623;0;24;0;6;0;0;0;4;0;6;40
158;5107958.0;510795;Tangará da Serra;MT;51;0.0;-14.6229;-57.4933;10;24;0;0;0;0;4;0;0;2;40
159;2301901.0;230190;Barbalha;CE;23;0.0;-7.2982;-39.3021;0;18;0;10;0;0;0;7;0;4;39
160;1504208.0;150420;Marabá;PA;15;0.0;-5.38075;-49.1327;0;20;0;0;0;0;0;9;0;10;39
161;4202008.0;420200;Balneário Camboriú;SC;42;0.0;-26.9926;-48.6352;0;20;10;0;0;0;0;0;0;9;39
162;2918407.0;291840;Juazeiro;BA;29;0.0;-9.41622;-40.5033;4;26;0;7;0;0;1;0;0;0;38
163;3503208.0;350320;Araraquara;SP;35;0.0;-21.7845;-48.178;14;18;0;0;0;0;3;3;0;0;38
164;3169901.0;316990;Ubá;MG;31;0.0;-21.1204;-42.9359;0;27;0;0;0;0;0;4;0;7;38
165;3306206.0;330620;Vassouras;RJ;33;0.0;-22.4059;-43.6686;0;35;0;0;0;0;0;0;0;3;38
166;3168606.0;316860;Teófilo Otoni;MG;31;0.0;-17.8595;-41.5087;10;20;0;5;0;0;0;1;0;1;37
167;4127700.0;412770;Toledo;PR;41;0.0;-24.7246;-53.7412;7;29;0;0;0;0;0;0;0;1;37
168;1100049.0;110004;Cacoal;RO;11;0.0;-11.4343;-61.4562;10;18;0;0;0;0;0;9;0;0;37
169;3303401.0;330340;Nova Friburgo;RJ;33;0.0;-22.2932;-42.5377;0;28;0;0;0;0;0;0;0;9;37
170;3152105.0;315210;Ponte Nova;MG;31;0.0;-20.4111;-42.8978;0;30;0;0;0;0;0;0;0;6;36
171;4301602.0;430160;Bagé;RS;43;0.0;-31.3297;-54.0999;0;26;0;0;0;0;0;10;0;0;36
172;2918001.0;291800;Jequié;BA;29;0.0;-13.8509;-40.0877;0;36;0;0;0;0;0;0;0;0;36
173;5102504.0;510250;Cáceres;MT;51;0.0;-16.0764;-57.6818;0;26;0;0;0;0;10;0;0;0;36
174;4208906.0;420890;Jaraguá do Sul;SC;42;0.0;-26.4851;-49.0713;0;30;0;0;0;0;0;6;0;0;36
175;4209300.0;420930;Lages;SC;42;0.0;-27.815;-50.3259;0;20;0;0;0;0;0;7;0;9;36
176;4104303.0;410430;Campo Mourão;PR;41;0.0;-24.0463;-52.378;0;30;0;0;0;0;0;3;0;3;36
177;4118501.0;411850;Pato Branco;PR;41;0.0;-26.2292;-52.6706;1;21;0;2;0;0;0;10;0;1;35
178;2931350.0;293135;Teixeira de Freitas;BA;29;0.0;-17.5399;-39.74;0;2;30;0;0;0;0;0;0;3;35
179;3131703.0;313170;Itabira;MG;31;0.0;-19.6239;-43.2312;0;30;0;0;0;0;0;0;0;5;35
180;2304202.0;230420;Crato;CE;23;0.0;-7.2153;-39.4103;15;20;0;0;0;0;0;0;0;0;35
181;5205109.0;520510;Catalão;GO;52;0.0;-18.1656;-47.944;0;28;0;0;0;0;0;2;0;5;35
182;3522208.0;352220;Itapecerica da Serra;SP;35;0.0;-23.7161;-46.8572;0;20;0;0;0;0;0;6;0;8;34
183;4317202.0;431720;Santa Rosa;RS;43;0.0;-27.8702;-54.4796;4;20;0;0;0;0;0;10;0;0;34
184;3503307.0;350330;Araras;SP;35;0.0;-22.3572;-47.3842;10;0;11;0;4;0;1;0;3;5;34
185;2103000.0;210300;Caxias;MA;21;0.0;-4.86505;-43.3617;0;20;0;0;0;0;0;6;0;7;33
186;3510609.0;351060;Carapicuíba;SP;35;0.0;-23.5235;-46.8407;6;20;0;0;0;0;0;6;0;1;33
187;1506138.0;150613;Redenção;PA;15;0.0;-8.02529;-50.0317;11;9;0;0;0;0;0;5;0;7;32
188;2311405.0;231140;Quixeramobim;CE;23;0.0;-5.19067;-39.2889;0;30;0;0;0;0;0;0;0;2;32
189;2208007.0;220800;Picos;PI;22;0.0;-7.077210000000001;-41.467;0;0;5;0;0;0;15;0;7;5;32
190;3504008.0;350400;Assis;SP;35;0.0;-22.66;-50.4183;6;21;0;0;0;0;1;3;0;1;32
191;4125704.0;412570;São Miguel do Iguaçu;PR;41;0.0;-25.3492;-54.2405;0;20;0;0;0;0;0;0;0;12;32
192;2600054.0;260005;Abreu e Lima;PE;26;0.0;-7.90072;-34.8984;32;0;0;0;0;0;0;0;0;0;32
193;3132404.0;313240;Itajubá;MG;31;0.0;-22.4225;-45.4598;0;28;0;0;0;0;0;3;0;0;31
194;4311403.0;431140;Lajeado;RS;43;0.0;-29.4591;-51.9644;0;20;0;0;0;0;0;4;0;7;31
195;3167202.0;316720;Sete Lagoas;MG;31;0.0;-19.4569;-44.2413;0;28;0;0;0;0;0;1;0;2;31
196;4111506.0;411150;Ivaiporã;PR;41;0.0;-24.2485;-51.6754;0;21;0;0;0;0;0;5;0;5;31
197;4126256.0;412625;Sarandi;PR;41;0.0;-23.4441;-51.87600000000001;0;27;0;0;0;0;0;4;0;0;31
198;3513009.0;351300;Cotia;SP;35;0.0;-23.6022;-46.919;18;10;0;0;0;0;0;0;0;3;31
199;5107909.0;510790;Sinop;MT;51;0.0;-11.8604;-55.5091;0;22;0;0;0;0;0;0;0;8;30
200;1505536.0;150553;Parauapebas;PA;15;0.0;-6.06781;-49.9037;0;10;10;0;0;0;0;0;0;10;30
201;4106407.0;410640;Cornélio Procópio;PR;41;0.0;-23.1829;-50.6498;9;20;0;0;0;0;0;0;0;1;30
202;3541000.0;354100;Praia Grande;SP;35;0.0;-24.0084;-46.4121;0;20;0;0;0;0;0;10;0;0;30
203;3305802.0;330580;Teresópolis;RJ;33;0.0;-22.4165;-42.9752;0;30;0;0;0;0;0;0;0;0;30
204;3104007.0;310400;Araxá;MG;31;0.0;-19.5902;-46.9438;2;27;0;0;0;0;0;0;0;0;29
205;3148103.0;314810;Patrocínio;MG;31;0.0;-18.9379;-46.9934;0;26;0;0;0;0;0;0;0;3;29
206;3516408.0;351640;Franco da Rocha;SP;35;0.0;-23.3229;-46.729;10;11;0;0;0;0;0;0;0;8;29
207;3534708.0;353470;Ourinhos;SP;35;0.0;-22.9797;-49.8697;0;21;0;2;0;0;0;6;0;0;29
208;4302105.0;430210;Bento Gonçalves;RS;43;0.0;-29.1662;-51.5165;0;20;0;0;0;0;0;9;0;0;29
209;4307005.0;430700;Erechim;RS;43;0.0;-27.6364;-52.2697;0;19;0;0;0;0;0;10;0;0;29
210;3113404.0;311340;Caratinga;MG;31;0.0;-19.7868;-42.1292;0;28;0;0;0;0;0;0;0;0;28
211;4204202.0;420420;Chapecó;SC;42;0.0;-27.1004;-52.6152;3;20;0;0;0;0;0;5;0;0;28
212;5107040.0;510704;Primavera do Leste;MT;51;0.0;-15.544;-54.2811;0;22;0;0;0;0;0;0;0;6;28
213;3555000.0;355500;Tupã;SP;35;0.0;-21.9335;-50.5191;0;27;0;0;0;0;0;0;0;0;27
214;3164704.0;316470;São Sebastião do Paraíso;MG;31;0.0;-20.9167;-46.9837;0;22;0;0;0;0;0;5;0;0;27
215;3162500.0;316250;São João del Rei;MG;31;0.0;-21.1311;-44.2526;0;20;0;0;0;0;0;3;0;4;27
216;3113305.0;311330;Carangola;MG;31;0.0;-20.7343;-42.0313;0;26;0;0;0;0;0;0;0;1;27
217;1709500.0;170950;Gurupi;TO;17;0.0;-11.7279;-49.06800000000001;3;18;0;0;0;0;0;2;0;3;26
218;2510808.0;251080;Patos;PB;25;0.0;-7.01743;-37.2747;6;12;0;0;0;0;0;6;0;2;26
219;2606002.0;260600;Garanhuns;PE;26;0.0;-8.882430000000003;-36.4966;5;21;0;0;0;0;0;0;0;0;26
220;4214805.0;421480;Rio do Sul;SC;42;0.0;-27.2156;-49.643;0;20;0;0;0;0;0;2;0;4;26
221;1100023.0;110002;Ariquemes;RO;11;0.0;-9.90571;-63.0325;0;19;0;0;0;0;0;5;0;2;26
222;3300100.0;330010;Angra dos Reis;RJ;33;0.0;-23.0011;-44.3196;6;17;0;0;0;0;0;0;0;3;26
223;3523909.0;352390;Itu;SP;35;0.0;-23.2544;-47.2927;0;20;0;0;0;6;0;0;0;0;26
224;3138203.0;313820;Lavras;MG;31;0.0;-21.248;-45.0009;0;20;0;0;0;0;0;3;0;2;25
225;1505502.0;150550;Paragominas;PA;15;0.0;-3.00212;-47.3527;0;20;0;0;0;0;0;0;0;5;25
226;3300209.0;330020;Araruama;RJ;33;0.0;-22.8697;-42.3326;0;16;0;0;0;0;0;4;0;5;25
227;4118204.0;411820;Paranaguá;PR;41;0.0;-25.5161;-48.5225;8;10;0;0;0;0;0;0;0;7;25
228;4312401.0;431240;Montenegro;RS;43;0.0;-29.6824;-51.4679;0;19;0;0;0;0;0;0;0;6;25
229;2905701.0;290570;Camaçari;BA;29;0.0;-12.6996;-38.3263;10;8;0;0;0;0;0;0;0;7;25
230;5107925.0;510792;Sorriso;MT;51;0.0;-12.5425;-55.7211;10;10;0;0;0;0;1;0;0;4;25
231;2900702.0;290070;Alagoinhas;BA;29;0.0;-12.1335;-38.4208;0;18;0;0;0;0;0;0;0;7;25
232;3530805.0;353080;Mogi Mirim;SP;35;0.0;-22.4332;-46.9532;6;10;2;0;0;0;0;0;0;7;25
233;3527108.0;352710;Lins;SP;35;0.0;-21.6718;-49.7526;0;23;0;0;0;0;0;0;0;2;25
234;3552809.0;355280;Taboão da Serra;SP;35;0.0;-23.6019;-46.7526;8;10;0;0;0;0;0;5;0;2;25
235;5219308.0;521930;Santa Helena de Goiás;GO;52;0.0;-17.8115;-50.5977;0;10;0;0;0;0;0;10;0;5;25
236;3530706.0;353070;Mogi Guaçu;SP;35;0.0;-22.3675;-46.9428;0;22;0;0;0;0;0;0;0;2;24
237;4322400.0;432240;Uruguaiana;RS;43;0.0;-29.7614;-57.0853;0;20;0;0;0;0;0;0;0;4;24
238;3552403.0;355240;Sumaré;SP;35;0.0;-22.8204;-47.2728;0;18;0;0;0;0;0;6;0;0;24
239;2111201.0;211120;São José de Ribamar;MA;21;0.0;-2.54704;-44.0597;0;20;0;0;0;0;0;0;0;4;24
240;5211909.0;521190;Jataí;GO;52;0.0;-17.8784;-51.7204;0;20;0;0;0;0;0;0;0;4;24
241;4210100.0;421010;Mafra;SC;42;0.0;-26.1159;-49.8086;0;22;0;0;0;0;0;0;0;2;24
242;3552502.0;355250;Suzano;SP;35;0.0;-23.5448;-46.3112;10;8;0;0;0;0;0;0;0;5;23
243;2516201.0;251620;Sousa;PB;25;0.0;-6.75148;-38.2311;10;6;0;0;0;0;0;0;0;7;23
244;1501709.0;150170;Bragança;PA;15;0.0;-1.06126;-46.7826;0;10;0;0;0;0;0;10;0;3;23
245;1502202.0;150220;Capanema;PA;15;0.0;-1.20529;-47.1778;0;19;0;0;0;0;0;0;0;4;23
246;3119401.0;311940;Coronel Fabriciano;MG;31;0.0;-19.5179;-42.6276;0;20;0;0;0;0;0;0;0;3;23
247;5211503.0;521150;Itumbiara;GO;52;0.0;-18.4093;-49.2158;0;19;0;0;0;0;0;0;0;4;23
248;3121605.0;312160;Diamantina;MG;31;0.0;-18.2413;-43.6031;0;20;0;0;0;0;0;2;0;1;23
249;4317103.0;431710;Sant'Ana do Livramento;RS;43;0.0;-30.8773;-55.5392;10;10;0;0;0;0;0;0;0;2;22
250;1508100.0;150810;Tucuruí;PA;15;0.0;-3.7657;-49.6773;4;7;0;0;0;0;1;6;0;4;22
251;4204301.0;420430;Concórdia;SC;42;0.0;-27.2335;-52.026;1;9;0;0;0;0;0;6;0;6;22
252;1502400.0;150240;Castanhal;PA;15;0.0;-1.29797;-47.9167;0;20;0;0;0;0;0;0;0;2;22
253;3551702.0;355170;Sertãozinho;SP;35;0.0;-21.1316;-47.9875;6;9;0;0;0;0;2;3;0;2;22
254;3524808.0;352480;Jales;SP;35;0.0;-20.2672;-50.5494;0;20;0;0;0;0;0;0;0;2;22
255;2103604.0;210360;Coroatá;MA;21;0.0;-4.13442;-44.1244;0;10;0;0;0;0;0;10;0;2;22
256;3522307.0;352230;Itapetininga;SP;35;0.0;-23.5886;-48.0483;0;16;0;0;0;0;0;0;0;6;22
257;3103504.0;310350;Araguari;MG;31;0.0;-18.6456;-48.1934;8;10;0;0;0;0;0;0;2;2;22
258;1500602.0;150060;Altamira;PA;15;0.0;-3.20407;-52.21;0;10;0;0;0;0;0;5;0;6;21
259;3529302.0;352930;Matão;SP;35;0.0;-21.6025;-48.364;0;0;18;0;0;0;0;0;3;0;21
260;3504107.0;350410;Atibaia;SP;35;0.0;-23.1171;-46.5563;21;0;0;0;0;0;0;0;0;0;21
261;3516309.0;351630;Francisco Morato;SP;35;0.0;-23.2792;-46.7448;0;0;10;0;0;0;0;8;0;3;21
262;4128203.0;412820;União da Vitória;PR;41;0.0;-26.2273;-51.0873;0;15;0;0;0;0;0;5;0;1;21
263;4316808.0;431680;Santa Cruz do Sul;RS;43;0.0;-29.722;-52.4343;0;7;10;0;0;0;0;4;0;0;21
264;5008305.0;500830;Três Lagoas;MS;50;0.0;-20.7849;-51.7007;9;10;0;0;0;0;0;0;0;2;21
265;3301900.0;330190;Itaboraí;RJ;33;0.0;-22.7565;-42.8639;10;8;0;0;0;0;0;0;0;3;21
266;3554003.0;355400;Tatuí;SP;35;0.0;-23.3487;-47.8461;0;15;0;0;0;0;0;1;0;5;21
267;3549102.0;354910;São João da Boa Vista;SP;35;0.0;-21.9707;-46.7944;0;20;0;0;0;0;0;0;0;0;20
268;4202909.0;420290;Brusque;SC;42;0.0;-27.0977;-48.9107;10;10;0;0;0;0;0;0;0;0;20
269;3522109.0;352210;Itanhaém;SP;35;0.0;-24.1736;-46.788;0;20;0;0;0;0;0;0;0;0;20
270;3527207.0;352720;Lorena;SP;35;0.0;-22.7334;-45.1197;10;10;0;0;0;0;0;0;0;0;20
271;4203006.0;420300;Caçador;SC;42;0.0;-26.7757;-51.012;0;20;0;0;0;0;0;0;0;0;20
272;2608909.0;260890;Limoeiro;PE;26;0.0;-7.8726;-35.4402;0;20;0;0;0;0;0;0;0;0;20
273;4101408.0;410140;Apucarana;PR;41;0.0;-23.55;-51.4635;0;18;0;0;0;0;0;2;0;0;20
274;2511301.0;251130;Piancó;PB;25;0.0;-7.1928199999999975;-37.9289;0;10;10;0;0;0;0;0;0;0;20
275;2613909.0;261390;Serra Talhada;PE;26;0.0;-7.98178;-38.289;5;11;0;0;0;0;1;0;0;3;20
276;2702306.0;270230;Coruripe;AL;27;0.0;-10.1276;-36.1717;0;0;10;0;0;0;0;0;9;1;20
277;5205406.0;520540;Ceres;GO;52;0.0;-15.3061;-49.6;0;19;0;0;0;0;0;0;0;1;20
278;3538006.0;353800;Pindamonhangaba;SP;35;0.0;-22.9246;-45.4613;10;10;0;0;0;0;0;0;0;0;20
279;3305109.0;330510;São João de Meriti;RJ;33;0.0;-22.8058;-43.3729;7;10;0;0;0;0;0;0;0;3;20
280;3202306.0;320230;Guaçuí;ES;32;0.0;-20.7668;-41.6734;0;20;0;0;0;0;0;0;0;0;20
281;3301108.0;330110;Cantagalo;RJ;33;0.0;-21.9797;-42.3664;0;20;0;0;0;0;0;0;0;0;20
282;3542602.0;354260;Registro;SP;35;0.0;-24.4979;-47.8449;0;10;0;0;0;0;0;10;0;0;20
283;3120904.0;312090;Curvelo;MG;31;0.0;-18.7527;-44.4303;0;20;0;0;0;0;0;0;0;0;20
284;2906501.0;290650;Candeias;BA;29;0.0;-12.6716;-38.5472;0;20;0;0;0;0;0;0;0;0;20
285;3306107.0;330610;Valença;RJ;33;0.0;-22.2445;-43.7129;0;20;0;0;0;0;0;0;0;0;20
286;2910727.0;291072;Eunápolis;BA;29;0.0;-16.3715;-39.5821;0;19;0;0;0;0;0;0;0;1;20
287;4125506.0;412550;São José dos Pinhais;PR;41;0.0;-25.5313;-49.2031;9;0;10;0;0;0;0;0;0;0;19
288;4317509.0;431750;Santo Ângelo;RS;43;0.0;-28.3001;-54.2668;0;17;0;0;0;0;0;0;0;2;19
289;4105508.0;410550;Cianorte;PR;41;0.0;-23.6599;-52.6054;0;18;0;0;0;0;0;0;0;1;19
290;3115300.0;311530;Cataguases;MG;31;0.0;-21.3924;-42.6896;0;10;0;0;0;0;0;0;0;8;18
291;3126109.0;312610;Formiga;MG;31;0.0;-20.4618;-45.4268;0;17;0;0;0;0;0;1;0;0;18
292;3557105.0;355710;Votuporanga;SP;35;0.0;-20.4237;-49.9781;4;14;0;0;0;0;0;0;0;0;18
293;4103701.0;410370;Cambé;PR;41;0.0;-23.2766;-51.2798;6;10;0;0;0;0;0;0;0;2;18
294;4219309.0;421930;Videira;SC;42;0.0;-27.0086;-51.1543;0;18;0;0;0;0;0;0;0;0;18
295;3551009.0;355100;São Vicente;SP;35;0.0;-23.9574;-46.3883;10;6;0;0;0;0;0;0;0;2;18
296;3556701.0;355670;Vinhedo;SP;35;0.0;-23.0302;-46.9833;0;18;0;0;0;0;0;0;0;0;18
297;3303203.0;330320;Nilópolis;RJ;33;0.0;-22.8057;-43.4233;2;6;0;0;0;9;0;0;0;0;17
298;2903201.0;290320;Barreiras;BA;29;0.0;-12.1439;-44.9968;0;10;0;0;0;0;0;7;0;0;17
299;3171303.0;317130;Viçosa;MG;31;0.0;-20.7559;-42.8742;0;15;0;0;0;0;0;0;0;2;17
300;3515707.0;351570;Ferraz de Vasconcelos;SP;35;0.0;-23.5411;-46.371;0;10;0;0;0;0;0;7;0;0;17
301;3545209.0;354520;Salto;SP;35;0.0;-23.1996;-47.2931;0;16;0;0;0;0;0;0;0;1;17
302;4111803.0;411180;Jacarezinho;PR;41;0.0;-23.1591;-49.9739;6;10;0;0;0;0;0;0;0;1;17
303;3509007.0;350900;Caieiras;SP;35;0.0;-23.3607;-46.7397;7;0;0;0;0;0;4;0;0;5;16
304;3305505.0;330550;Saquarema;RJ;33;0.0;-22.9292;-42.5099;0;15;0;0;0;0;0;0;0;1;16
305;2914604.0;291460;Irecê;BA;29;0.0;-11.3033;-41.8535;0;16;0;0;0;0;0;0;0;0;16
306;3134202.0;313420;Ituiutaba;MG;31;0.0;-18.9772;-49.4639;5;10;0;0;0;0;0;0;0;1;16
307;3300308.0;330030;Barra do Piraí;RJ;33;0.0;-22.4715;-43.8269;0;7;7;0;0;0;0;0;0;2;16
308;5204508.0;520450;Caldas Novas;GO;52;0.0;-17.7441;-48.6246;0;10;0;0;0;0;0;0;0;6;16
309;3506508.0;350650;Birigui;SP;35;0.0;-21.291;-50.3432;5;10;0;0;0;0;0;0;0;1;16
310;3531308.0;353130;Monte Alto;SP;35;0.0;-21.2655;-48.4971;3;10;0;0;0;0;0;0;0;3;16
311;4204806.0;420480;Curitibanos;SC;42;0.0;-27.2824;-50.5816;0;8;0;0;0;0;0;3;0;5;16
312;4118402.0;411840;Paranavaí;PR;41;0.0;-23.0816;-52.4617;0;10;0;0;0;0;0;1;0;5;16
313;4306106.0;430610;Cruz Alta;RS;43;0.0;-28.645;-53.6048;5;10;0;0;0;0;0;0;0;0;15
314;4206900.0;420690;Ibirama;SC;42;0.0;-27.0547;-49.5193;0;10;0;0;0;0;0;0;0;5;15
315;2108603.0;210860;Pinheiro;MA;21;0.0;-2.52224;-45.0788;0;10;0;0;0;0;0;0;0;5;15
316;3542206.0;354220;Rancharia;SP;35;0.0;-22.2269;-50.893;5;10;0;0;0;0;0;0;0;0;15
317;1501808.0;150180;Breves;PA;15;0.0;-1.68036;-50.4791;0;7;0;0;0;0;0;5;0;3;15
318;3522604.0;352260;Itapira;SP;35;0.0;-22.4357;-46.8224;10;5;0;0;0;0;0;0;0;0;15
319;4323002.0;432300;Viamão;RS;43;0.0;-30.0819;-51.0194;0;15;0;0;0;0;0;0;0;0;15
320;3504503.0;350450;Avaré;SP;35;0.0;-23.1067;-48.9251;0;10;0;0;0;0;0;0;0;5;15
321;2402006.0;240200;Caicó;RN;24;0.0;-6.45441;-37.1067;10;0;0;0;0;0;0;0;0;5;15
322;3551504.0;355150;Serrana;SP;35;0.0;-21.2043;-47.5952;0;10;0;0;0;0;0;0;0;4;14
323;5001102.0;500110;Aquidauana;MS;50;0.0;-20.4666;-55.7868;0;10;0;0;0;0;0;0;0;4;14
324;3524303.0;352430;Jaboticabal;SP;35;0.0;-21.252;-48.3252;0;12;0;0;0;0;0;0;0;2;14
325;2304103.0;230410;Crateús;CE;23;0.0;-5.167680000000002;-40.6536;2;10;0;0;0;0;0;0;0;2;14
326;5101803.0;510180;Barra do Garças;MT;51;0.0;-15.8804;-52.264;0;10;0;0;0;0;0;0;0;4;14
327;4219507.0;421950;Xanxerê;SC;42;0.0;-26.8747;-52.4036;0;11;0;0;0;0;0;3;0;0;14
328;3553708.0;355370;Taquaritinga;SP;35;0.0;-21.4049;-48.5103;0;8;0;0;0;0;0;2;0;4;14
329;2302503.0;230250;Brejo Santo;CE;23;0.0;-7.48469;-38.9799;0;10;0;0;0;0;0;0;0;4;14
330;2911709.0;291170;Guanambi;BA;29;0.0;-14.2231;-42.7799;0;10;0;0;0;0;0;0;0;4;14
331;2109908.0;210990;Santa Inês;MA;21;0.0;-3.65112;-45.3774;0;10;0;0;0;0;0;0;0;4;14
332;3135100.0;313510;Janaúba;MG;31;0.0;-15.8022;-43.3132;0;10;0;0;0;0;0;0;0;4;14
333;2708006.0;270800;Santana do Ipanema;AL;27;0.0;-9.36999;-37.24800000000001;0;10;0;0;0;0;0;0;0;4;14
334;3108602.0;310860;Brasília de Minas;MG;31;0.0;-16.2104;-44.4299;0;10;0;0;0;0;0;0;0;4;14
335;2101202.0;210120;Bacabal;MA;21;0.0;-4.224469999999998;-44.7832;0;10;0;0;0;0;0;0;0;4;14
336;2103208.0;210320;Chapadinha;MA;21;0.0;-3.73875;-43.3538;0;10;0;0;0;0;0;0;0;4;14
337;3503901.0;350390;Arujá;SP;35;0.0;-23.3965;-46.32;0;8;0;0;0;0;0;0;0;5;13
338;4318705.0;431870;São Leopoldo;RS;43;0.0;-29.7545;-51.1498;1;9;0;0;0;0;0;0;0;3;13
339;2907509.0;290750;Catu;BA;29;0.0;-12.3513;-38.3791;0;10;0;0;0;0;0;0;0;3;13
340;3129806.0;312980;Ibirité;MG;31;0.0;-20.0252;-44.0569;0;10;0;0;0;0;0;0;0;3;13
341;4308508.0;430850;Frederico Westphalen;RS;43;0.0;-27.3586;-53.3958;0;10;0;0;0;0;0;0;0;3;13
342;4124103.0;412410;Santo Antônio da Platina;PR;41;0.0;-23.2959;-50.0815;0;10;0;0;0;0;0;0;0;3;13
343;5006200.0;500620;Nova Andradina;MS;50;0.0;-22.238000000000003;-53.3437;0;10;0;0;0;0;0;0;0;3;13
344;3147006.0;314700;Paracatu;MG;31;0.0;-17.2252;-46.8711;0;8;0;0;0;0;0;0;0;5;13
345;3204609.0;320460;Santa Teresa;ES;32;0.0;-19.9363;-40.5979;0;10;0;0;0;0;0;0;0;3;13
346;2601201.0;260120;Arcoverde;PE;26;0.0;-8.415189999999999;-37.0577;0;13;0;0;0;0;0;0;0;0;13
347;3523404.0;352340;Itatiba;SP;35;0.0;-23.0035;-46.8464;2;10;0;0;0;0;0;0;0;1;13
348;1100304.0;110030;Vilhena;RO;11;0.0;-12.7502;-60.1488;0;10;0;0;0;0;0;0;0;3;13
349;5208608.0;520860;Goianésia;GO;52;0.0;-15.3118;-49.1162;0;10;0;0;0;0;0;0;0;3;13
350;5218508.0;521850;Quirinópolis;GO;52;0.0;-18.4472;-50.4547;0;11;0;0;0;0;0;0;0;2;13
351;4321600.0;432160;Tramandaí;RS;43;0.0;-29.9841;-50.1322;0;10;0;0;0;0;0;0;0;2;12
352;1100122.0;110012;Ji-Paraná;RO;11;0.0;-10.8777;-61.9322;0;10;0;0;0;0;0;0;0;2;12
353;3136207.0;313620;João Monlevade;MG;31;0.0;-19.8126;-43.1735;0;10;0;0;0;0;0;0;0;2;12
354;3557006.0;355700;Votorantim;SP;35;0.0;-23.5446;-47.4388;7;5;0;0;0;0;0;0;0;0;12
355;2208403.0;220840;Piripiri;PI;22;0.0;-4.27157;-41.7716;0;10;0;0;0;0;0;0;0;2;12
356;1504422.0;150442;Marituba;PA;15;0.0;-1.36002;-48.3421;0;7;0;0;0;0;0;0;0;5;12
357;4101804.0;410180;Araucária;PR;41;0.0;-25.5859;-49.4047;0;9;0;0;0;0;0;3;0;0;12
358;5213103.0;521310;Mineiros;GO;52;0.0;-17.5654;-52.5537;10;0;0;0;0;0;0;0;0;2;12
359;3300258.0;330025;Arraial do Cabo;RJ;33;0.0;-22.9774;-42.0267;0;8;0;0;0;0;0;3;0;1;12
360;4102406.0;410240;Bandeirantes;PR;41;0.0;-23.1078;-50.3704;0;12;0;0;0;0;0;0;0;0;12
361;2109106.0;210910;Presidente Dutra;MA;21;0.0;-5.2898;-44.495;0;11;0;0;0;0;0;0;0;1;12
362;3543303.0;354330;Ribeirão Pires;SP;35;0.0;-23.7067;-46.4058;11;0;0;0;0;0;0;0;0;1;12
363;5105259.0;510525;Lucas do Rio Verde;MT;51;0.0;-13.0588;-55.9042;0;10;0;0;0;0;0;0;0;2;12
364;5105150.0;510515;Juína;MT;51;0.0;-11.3728;-58.7483;10;0;0;0;0;0;0;0;0;2;12
365;3302007.0;330200;Itaguaí;RJ;33;0.0;-22.8636;-43.7798;0;10;0;0;0;0;0;0;0;2;12
366;3300605.0;330060;Bom Jesus do Itabapoana;RJ;33;0.0;-21.1449;-41.6822;0;10;0;0;0;0;0;0;0;2;12
367;2307650.0;230765;Maracanaú;CE;23;0.0;-3.86699;-38.6259;10;0;0;0;0;0;0;0;0;2;12
368;4113304.0;411330;Laranjeiras do Sul;PR;41;0.0;-25.4077;-52.4109;0;10;0;0;0;0;0;0;0;2;12
369;3524105.0;352410;Ituverava;SP;35;0.0;-20.3355;-47.7902;0;10;0;0;0;0;0;0;0;2;12
370;2916401.0;291640;Itapetinga;BA;29;0.0;-15.2475;-40.2482;0;9;0;0;0;0;0;0;0;3;12
371;4127106.0;412710;Telêmaco Borba;PR;41;0.0;-24.3245;-50.6176;0;12;0;0;0;0;0;0;0;0;12
372;3522406.0;352240;Itapeva;SP;35;0.0;-23.9788;-48.8764;0;10;0;0;0;0;0;0;0;2;12
373;4215000.0;421500;Rio Negrinho;SC;42;0.0;-26.2591;-49.5177;0;0;0;0;0;0;0;0;0;12;12
374;2612208.0;261220;Salgueiro;PE;26;0.0;-8.07373;-39.1247;0;11;0;0;0;0;0;0;0;1;12
375;2503704.0;250370;Cajazeiras;PB;25;0.0;-6.8800399999999975;-38.5577;0;7;0;0;0;0;0;0;0;5;12
376;4203808.0;420380;Canoinhas;SC;42;0.0;-26.1766;-50.395;0;10;0;0;0;0;0;0;0;2;12
377;4210506.0;421050;Maravilha;SC;42;0.0;-26.7665;-53.1737;0;10;0;0;0;0;0;0;0;2;12
378;3513504.0;351350;Cubatão;SP;35;0.0;-23.8911;-46.424;0;7;0;0;0;0;2;0;0;2;11
379;3111200.0;311120;Campo Belo;MG;31;0.0;-20.8932;-45.2699;0;11;0;0;0;0;0;0;0;0;11
380;3125101.0;312510;Extrema;MG;31;0.0;-22.854;-46.3178;0;10;0;0;0;0;0;0;0;1;11
381;4110706.0;411070;Irati;PR;41;0.0;-25.4697;-50.6493;0;11;0;0;0;0;0;0;0;0;11
382;4120606.0;412060;Prudentópolis;PR;41;0.0;-25.2111;-50.9754;0;0;0;0;0;0;0;0;0;11;11
383;3200904.0;320090;Barra de São Francisco;ES;32;0.0;-18.7548;-40.8965;10;0;0;0;0;0;0;0;0;1;11
384;5220454.0;522045;Senador Canedo;GO;52;0.0;-16.7084;-49.0914;0;10;0;0;0;0;0;0;0;1;11
385;3303005.0;330300;Miracema;RJ;33;0.0;-21.4148;-42.1938;9;0;0;0;0;0;0;0;0;2;11
386;4102000.0;410200;Assis Chateaubriand;PR;41;0.0;-24.4168;-53.5213;0;10;0;0;0;0;0;0;0;1;11
387;2409407.0;240940;Pau dos Ferros;RN;24;0.0;-6.10498;-38.2077;0;10;0;0;0;0;0;0;0;1;11
388;3146107.0;314610;Ouro Preto;MG;31;0.0;-20.3796;-43.512;0;10;0;0;0;0;0;0;0;1;11
389;1501303.0;150130;Barcarena;PA;15;0.0;-1.51187;-48.6195;0;10;0;0;0;0;0;0;0;1;11
390;3204807.0;320480;São José do Calçado;ES;32;0.0;-21.0274;-41.6636;0;10;0;0;0;0;0;0;0;1;11
391;3143104.0;314310;Monte Carmelo;MG;31;0.0;-18.7302;-47.4912;0;0;8;0;0;0;0;0;0;3;11
392;3205069.0;320506;Venda Nova do Imigrante;ES;32;0.0;-20.327;-41.1355;0;10;0;0;0;0;0;0;0;1;11
393;5220108.0;522010;São Luís de Montes Belos;GO;52;0.0;-16.5211;-50.3726;0;0;9;0;0;0;0;0;0;2;11
394;4217204.0;421720;São Miguel do Oeste;SC;42;0.0;-26.7242;-53.5163;0;10;0;0;0;0;0;0;0;1;11
395;3118304.0;311830;Conselheiro Lafaiete;MG;31;0.0;-20.6634;-43.7846;0;10;0;0;0;0;0;0;0;1;11
396;3169307.0;316930;Três Corações;MG;31;0.0;-21.6921;-45.2511;0;10;0;0;0;0;0;1;0;0;11
397;2101400.0;210140;Balsas;MA;21;0.0;-7.532139999999999;-46.0372;0;10;0;0;0;0;0;0;0;1;11
398;3139508.0;313950;Manhumirim;MG;31;0.0;-20.3591;-41.9589;0;10;0;0;0;0;0;0;0;1;11
399;3139409.0;313940;Manhuaçu;MG;31;0.0;-20.2572;-42.028;0;11;0;0;0;0;0;0;0;0;11
400;3200607.0;320060;Aracruz;ES;32;0.0;-19.82;-40.2764;0;10;0;0;0;0;0;0;0;0;10
401;2929909.0;292990;Seabra;BA;29;0.0;-12.4169;-41.7722;0;10;0;0;0;0;0;0;0;0;10
402;5006606.0;500660;Ponta Porã;MS;50;0.0;-22.5296;-55.7203;0;10;0;0;0;0;0;0;0;0;10
403;4218202.0;421820;Timbó;SC;42;0.0;-26.8246;-49.269;0;10;0;0;0;0;0;0;0;0;10
404;2929008.0;292900;São Félix;BA;29;0.0;-12.6104;-38.9727;0;9;0;0;0;0;0;0;0;1;10
405;3172004.0;317200;Visconde do Rio Branco;MG;31;0.0;-21.0127;-42.8361;0;10;0;0;0;0;0;0;0;0;10
406;5100250.0;510025;Alta Floresta;MT;51;0.0;-9.86674;-56.0867;0;10;0;0;0;0;0;0;0;0;10
407;2613701.0;261370;São Lourenço da Mata;PE;26;0.0;-8.006839999999999;-35.0124;0;10;0;0;0;0;0;0;0;0;10
408;3545803.0;354580;Santa Bárbara d'Oeste;SP;35;0.0;-22.7553;-47.4143;0;9;0;0;0;0;0;0;0;1;10
409;4321907.0;432190;Três Passos;RS;43;0.0;-27.4555;-53.9296;0;10;0;0;0;0;0;0;0;0;10
410;5221403.0;522140;Trindade;GO;52;0.0;-16.6517;-49.4927;0;0;0;0;0;0;0;0;0;10;10
411;4322608.0;432260;Venâncio Aires;RS;43;0.0;-29.6143;-52.1932;0;10;0;0;0;0;0;0;0;0;10
412;4322509.0;432250;Vacaria;RS;43;0.0;-28.5079;-50.9418;0;10;0;0;0;0;0;0;0;0;10
413;4215802.0;421580;São Bento do Sul;SC;42;0.0;-26.2495;-49.3831;0;10;0;0;0;0;0;0;0;0;10
414;5003207.0;500320;Corumbá;MS;50;0.0;-19.0077;-57.651;0;10;0;0;0;0;0;0;0;0;10
415;2601904.0;260190;Bezerros;PE;26;0.0;-8.2328;-35.796;0;10;0;0;0;0;0;0;0;0;10
416;3169406.0;316940;Três Pontas;MG;31;0.0;-21.3694;-45.5109;0;10;0;0;0;0;0;0;0;0;10
417;3104908.0;310490;Baependi;MG;31;0.0;-21.957;-44.8874;0;10;0;0;0;0;0;0;0;0;10
418;2207009.0;220700;Oeiras;PI;22;0.0;-7.01915;-42.1283;0;10;0;0;0;0;0;0;0;0;10
419;3137205.0;313720;Lagoa da Prata;MG;31;0.0;-20.0237;-45.5401;0;10;0;0;0;0;0;0;0;0;10
420;4207007.0;420700;Içara;SC;42;0.0;-28.7132;-49.3087;0;10;0;0;0;0;0;0;0;0;10
421;2203909.0;220390;Floriano;PI;22;0.0;-6.77182;-43.0241;0;10;0;0;0;0;0;0;0;0;10
422;3138401.0;313840;Leopoldina;MG;31;0.0;-21.5296;-42.6421;0;7;0;0;0;0;0;1;0;2;10
423;3133808.0;313380;Itaúna;MG;31;0.0;-20.0818;-44.5801;0;10;0;0;0;0;0;0;0;0;10
424;2508901.0;250890;Mamanguape;PB;25;0.0;-6.8337;-35.1213;0;10;0;0;0;0;0;0;0;0;10
425;3145604.0;314560;Oliveira;MG;31;0.0;-20.6982;-44.82899999999999;0;10;0;0;0;0;0;0;0;0;10
426;4208500.0;420850;Ituporanga;SC;42;0.0;-27.4101;-49.5963;0;10;0;0;0;0;0;0;0;0;10
427;3147105.0;314710;Pará de Minas;MG;31;0.0;-19.8534;-44.6114;0;10;0;0;0;0;0;0;0;0;10
428;5208905.0;520890;Goiás;GO;52;0.0;-15.9333;-50.14;0;10;0;0;0;0;0;0;0;0;10
429;4209003.0;420900;Joaçaba;SC;42;0.0;-27.1721;-51.5108;0;10;0;0;0;0;0;0;0;0;10
430;5103205.0;510320;Colíder;MT;51;0.0;-10.8135;-55.46100000000001;0;8;0;0;0;0;0;2;0;0;10
431;3151206.0;315120;Pirapora;MG;31;0.0;-17.3392;-44.934;0;10;0;0;0;0;0;0;0;0;10
432;3151503.0;315150;Piumhi;MG;31;0.0;-20.4762;-45.9589;0;10;0;0;0;0;0;0;0;0;10
433;2609907.0;260990;Ouricuri;PE;26;0.0;-7.87918;-40.08;0;10;0;0;0;0;0;0;0;0;10
434;4201406.0;420140;Araranguá;SC;42;0.0;-28.9356;-49.4918;0;10;0;0;0;0;0;0;0;0;10
435;3159902.0;315990;Santo Antônio do Amparo;MG;31;0.0;-20.943;-44.9176;0;10;0;0;0;0;0;0;0;0;10
436;3530508.0;353050;Mococa;SP;35;0.0;-21.4647;-47.0024;0;10;0;0;0;0;0;0;0;0;10
437;3163706.0;316370;São Lourenço;MG;31;0.0;-22.1166;-45.0506;0;10;0;0;0;0;0;0;0;0;10
438;4104907.0;410490;Castro;PR;41;0.0;-24.7891;-50.0108;0;10;0;0;0;0;0;0;0;0;10
439;3523107.0;352310;Itaquaquecetuba;SP;35;0.0;-23.4835;-46.3457;0;10;0;0;0;0;0;0;0;0;10
440;3519600.0;351960;Ibitinga;SP;35;0.0;-21.7562;-48.8319;10;0;0;0;0;0;0;0;0;0;10
441;3168002.0;316800;Taiobeiras;MG;31;0.0;-15.8106;-42.2259;0;10;0;0;0;0;0;0;0;0;10
442;3530102.0;353010;Mirandópolis;SP;35;0.0;-21.1313;-51.1035;0;10;0;0;0;0;0;0;0;0;10
443;2925303.0;292530;Porto Seguro;BA;29;0.0;-16.4435;-39.0643;0;10;0;0;0;0;0;0;0;0;10
444;4321402.0;432140;Tenente Portela;RS;43;0.0;-27.3711;-53.7585;0;10;0;0;0;0;0;0;0;0;10
445;2403251.0;240325;Parnamirim;RN;24;0.0;-5.91116;-35.271;0;10;0;0;0;0;0;0;0;0;10
446;3540606.0;354060;Porto Feliz;SP;35;0.0;-23.2093;-47.5251;0;10;0;0;0;0;0;0;0;0;10
447;3304524.0;330452;Rio das Ostras;RJ;33;0.0;-22.5174;-41.9475;10;0;0;0;0;0;0;0;0;0;10
448;3539301.0;353930;Pirassununga;SP;35;0.0;-21.996;-47.4257;0;10;0;0;0;0;0;0;0;0;10
449;3304706.0;330470;Santo Antônio de Pádua;RJ;33;0.0;-21.541;-42.1832;8;0;0;0;0;0;0;0;0;2;10
450;3304805.0;330480;São Fidélis;RJ;33;0.0;-21.6551;-41.756;0;10;0;0;0;0;0;0;0;0;10
451;4316600.0;431660;Sananduva;RS;43;0.0;-27.947;-51.8079;0;10;0;0;0;0;0;0;0;0;10
452;3306008.0;330600;Três Rios;RJ;33;0.0;-22.1165;-43.2185;0;10;0;0;0;0;0;0;0;0;10
453;3513405.0;351340;Cruzeiro;SP;35;0.0;-22.5728;-44.969;0;10;0;0;0;0;0;0;0;0;10
454;4309209.0;430920;Gravataí;RS;43;0.0;-29.9413;-50.9869;0;10;0;0;0;0;0;0;0;0;10
455;3501707.0;350170;Américo Brasiliense;SP;35;0.0;-21.7288;-48.1147;0;10;0;0;0;0;0;0;0;0;10
456;3501905.0;350190;Amparo;SP;35;0.0;-22.7088;-46.772;0;9;0;0;0;0;0;0;0;1;10
457;4303004.0;430300;Cachoeira do Sul;RS;43;0.0;-30.033;-52.8928;0;10;0;0;0;0;0;0;0;0;10
458;3502101.0;350210;Andradina;SP;35;0.0;-20.8948;-51.3786;0;10;0;0;0;0;0;0;0;0;10
459;3535507.0;353550;Paraguaçu Paulista;SP;35;0.0;-22.4114;-50.5732;0;10;0;0;0;0;0;0;0;0;10
460;4309100.0;430910;Gramado;RS;43;0.0;-29.3734;-50.8762;0;10;0;0;0;0;0;0;0;0;10
461;4303905.0;430390;Campo Bom;RS;43;0.0;-29.6747;-51.0606;0;10;0;0;0;0;0;0;0;0;10
462;4307906.0;430790;Farroupilha;RS;43;0.0;-29.2227;-51.3419;0;10;0;0;0;0;0;0;0;0;10
463;4304507.0;430450;Canguçu;RS;43;0.0;-31.396;-52.6783;0;10;0;0;0;0;0;0;0;0;10
464;4307807.0;430780;Estrela;RS;43;0.0;-29.5002;-51.9495;0;10;0;0;0;0;0;0;0;0;10
465;2904605.0;290460;Brumado;BA;29;0.0;-14.2021;-41.6696;0;10;0;0;0;0;0;0;0;0;10
466;4304630.0;430463;Capão da Canoa;RS;43;0.0;-29.7642;-50.0282;0;10;0;0;0;0;0;0;0;0;10
467;2803500.0;280350;Lagarto;SE;28;0.0;-10.9136;-37.6689;0;10;0;0;0;0;0;0;0;0;10
468;4306601.0;430660;Dom Pedrito;RS;43;0.0;-30.9756;-54.6694;10;0;0;0;0;0;0;0;0;0;10
469;2403103.0;240310;Currais Novos;RN;24;0.0;-6.25484;-36.5146;0;10;0;0;0;0;0;0;0;0;10
470;3510401.0;351040;Capivari;SP;35;0.0;-22.9951;-47.5071;0;10;0;0;0;0;0;0;0;0;10
471;3304300.0;330430;Rio Bonito;RJ;33;0.0;-22.7181;-42.6276;0;10;0;0;0;0;0;0;0;0;10
472;3128709.0;312870;Guaxupé;MG;31;0.0;-21.305;-46.7081;0;10;0;0;0;0;0;0;0;0;10
473;2917508.0;291750;Jacobina;BA;29;0.0;-11.1812;-40.5117;0;3;0;0;0;0;0;0;0;7;10
474;3515509.0;351550;Fernandópolis;SP;35;0.0;-20.2806;-50.2471;0;10;0;0;0;0;0;0;0;0;10
475;3541505.0;354150;Presidente Venceslau;SP;35;0.0;-21.8732;-51.8447;0;10;0;0;0;0;0;0;0;0;10
476;4318309.0;431830;São Gabriel;RS;43;0.0;-30.3337;-54.3217;0;10;0;0;0;0;0;0;0;0;10
477;4317400.0;431740;Santiago;RS;43;0.0;-29.1897;-54.8666;0;10;0;0;0;0;0;0;0;0;10
478;4320008.0;432000;Sapucaia do Sul;RS;43;0.0;-29.8276;-51.145;0;10;0;0;0;0;0;0;0;0;10
479;3514403.0;351440;Dracena;SP;35;0.0;-21.4843;-51.535;0;10;0;0;0;0;0;0;0;0;10
480;4321204.0;432120;Taquara;RS;43;0.0;-29.6505;-50.7753;0;10;0;0;0;0;0;0;0;0;10
481;4117602.0;411760;Palmas;PR;41;0.0;-26.4839;-51.9888;0;10;0;0;0;0;0;0;0;0;10
482;3536208.0;353620;Pariquera-Açu;SP;35;0.0;-24.7147;-47.8742;0;9;0;0;0;0;0;0;0;0;9
483;2506301.0;250630;Guarabira;PB;25;0.0;-6.8506399999999985;-35.485;0;6;0;0;0;0;0;0;0;3;9
484;4115804.0;411580;Medianeira;PR;41;0.0;-25.2977;-54.0943;0;8;0;0;0;0;0;0;0;1;9
485;3506102.0;350610;Bebedouro;SP;35;0.0;-20.9491;-48.4791;0;6;0;0;0;0;0;0;0;3;9
486;3522703.0;352270;Itápolis;SP;35;0.0;-21.5942;-48.8149;0;9;0;0;0;0;0;0;0;0;9
487;2706307.0;270630;Palmeira dos Índios;AL;27;0.0;-9.40568;-36.6328;0;8;0;0;0;0;0;0;0;1;9
488;4318002.0;431800;São Borja;RS;43;0.0;-28.6578;-56.0036;0;9;0;0;0;0;0;0;0;0;9
489;3502507.0;350250;Aparecida;SP;35;0.0;-22.8495;-45.2325;0;9;0;0;0;0;0;0;0;0;9
490;1200203.0;120020;Cruzeiro do Sul;AC;12;0.0;-7.6276199999999985;-72.6756;0;7;0;0;0;0;0;1;0;1;9
491;3303708.0;330370;Paraíba do Sul;RJ;33;0.0;-22.1585;-43.304;0;7;0;0;0;0;0;0;0;2;9
492;4319901.0;431990;Sapiranga;RS;43;0.0;-29.6349;-51.0064;0;7;0;0;0;0;0;0;0;2;9
493;3510500.0;351050;Caraguatatuba;SP;35;0.0;-23.6125;-45.4125;0;6;0;0;0;0;0;0;0;2;8
494;3145901.0;314590;Ouro Branco;MG;31;0.0;-20.5263;-43.6962;0;8;0;0;0;0;0;0;0;0;8
495;4207502.0;420750;Indaial;SC;42;0.0;-26.8992;-49.2354;0;0;0;0;0;0;0;0;0;8;8
496;3526704.0;352670;Leme;SP;35;0.0;-22.1809;-47.3841;0;8;0;0;0;0;0;0;0;0;8
497;3550704.0;355070;São Sebastião;SP;35;0.0;-23.7951;-45.4143;0;8;0;0;0;0;0;0;0;0;8
498;4300406.0;430040;Alegrete;RS;43;0.0;-29.7902;-55.7949;0;8;0;0;0;0;0;0;0;0;8
499;1200104.0;120010;Brasiléia;AC;12;0.0;-10.995;-68.7497;0;0;0;0;0;0;0;0;0;8;8
500;4307708.0;430770;Esteio;RS;43;0.0;-29.852;-51.1841;0;8;0;0;0;0;0;0;0;0;8
501;2305506.0;230550;Iguatu;CE;23;0.0;-6.36281;-39.2892;6;0;0;0;0;0;0;0;0;2;8
502;3549409.0;354940;São Joaquim da Barra;SP;35;0.0;-20.5812;-47.8593;0;8;0;0;0;0;0;0;0;0;8
503;4213609.0;421360;Porto União;SC;42;0.0;-26.2451;-51.0759;0;8;0;0;0;0;0;0;0;0;8
504;3304151.0;330415;Quissamã;RJ;33;0.0;-22.1031;-41.4693;0;6;0;0;0;0;0;0;0;2;8
505;3101508.0;310150;Além Paraíba;MG;31;0.0;-21.8797;-42.7176;0;5;0;0;0;0;0;0;0;3;8
506;3537305.0;353730;Penápolis;SP;35;0.0;-21.4148;-50.0769;8;0;0;0;0;0;0;0;0;0;8
507;3541604.0;354160;Promissão;SP;35;0.0;-21.5356;-49.8599;0;8;0;0;0;0;0;0;0;0;8
508;3168705.0;316870;Timóteo;MG;31;0.0;-19.5811;-42.6471;0;8;0;0;0;0;0;0;0;0;8
509;3505906.0;350590;Batatais;SP;35;0.0;-20.8929;-47.5921;0;8;0;0;0;0;0;0;0;0;8
510;3520442.0;352044;Ilha Solteira;SP;35;0.0;-20.4326;-51.3426;4;0;0;0;0;0;0;0;0;4;8
511;4316402.0;431640;Rosário do Sul;RS;43;0.0;-30.2515;-54.9221;0;8;0;0;0;0;0;0;0;0;8
512;3533908.0;353390;Olímpia;SP;35;0.0;-20.7366;-48.9106;0;7;0;0;0;0;0;0;0;0;7
513;5221601.0;522160;Uruaçu;GO;52;0.0;-14.5238;-49.1396;0;0;0;0;0;0;0;0;0;7;7
514;4304705.0;430470;Carazinho;RS;43;0.0;-28.2958;-52.7933;0;7;0;0;0;0;0;0;0;0;7
515;3546603.0;354660;Santa Fé do Sul;SP;35;0.0;-20.2083;-50.932;0;7;0;0;0;0;0;0;0;0;7
516;3546405.0;354640;Santa Cruz do Rio Pardo;SP;35;0.0;-22.8988;-49.6354;0;7;0;0;0;0;0;0;0;0;7
517;4321501.0;432150;Torres;RS;43;0.0;-29.3334;-49.7333;0;5;0;0;0;0;0;0;0;2;7
518;2210607.0;221060;São Raimundo Nonato;PI;22;0.0;-9.01241;-42.6987;0;0;0;0;0;0;0;0;0;7;7
519;4321808.0;432180;Três de Maio;RS;43;0.0;-27.78;-54.2357;0;6;0;0;0;0;0;0;0;1;7
520;3304110.0;330411;Porto Real;RJ;33;0.0;-22.4175;-44.2952;0;6;0;0;0;0;0;0;0;1;7
521;3549706.0;354970;São José do Rio Pardo;SP;35;0.0;-21.5953;-46.8873;0;7;0;0;0;0;0;0;0;0;7
522;1503606.0;150360;Itaituba;PA;15;0.0;-4.2667;-55.9926;0;0;0;0;0;0;0;0;0;7;7
523;3546801.0;354680;Santa Isabel;SP;35;0.0;-23.3172;-46.2237;0;7;0;0;0;0;0;0;0;0;7
524;3519071.0;351907;Hortolândia;SP;35;0.0;-22.8529;-47.2143;0;6;0;0;0;0;0;0;0;1;7
525;2708600.0;270860;São Miguel dos Campos;AL;27;0.0;-9.78301;-36.0971;0;7;0;0;0;0;0;0;0;0;7
526;2926608.0;292660;Ribeira do Pombal;BA;29;0.0;-10.8373;-38.5382;0;7;0;0;0;0;0;0;0;0;7
527;3512803.0;351280;Cosmópolis;SP;35;0.0;-22.6419;-47.1926;0;7;0;0;0;0;0;0;0;0;7
528;2512101.0;251210;Pombal;PB;25;0.0;-6.76606;-37.8003;0;6;0;0;0;0;0;0;0;0;6
529;3300902.0;330090;Cambuci;RJ;33;0.0;-21.5691;-41.9187;0;4;0;0;0;0;0;0;0;2;6
530;3536505.0;353650;Paulínia;SP;35;0.0;-22.7542;-47.1488;0;6;0;0;0;0;0;0;0;0;6
531;3533502.0;353350;Novo Horizonte;SP;35;0.0;-21.4651;-49.2234;6;0;0;0;0;0;0;0;0;0;6
532;3202702.0;320270;Itaguaçu;ES;32;0.0;-19.8018;-40.8601;0;0;0;0;0;0;0;0;0;6;6
533;2601409.0;260140;Barreiros;PE;26;0.0;-8.81605;-35.1832;4;0;0;0;0;0;0;0;0;2;6
534;1600600.0;160060;Santana;ap;16;0.0;-0.045434;-51.1729;6;0;0;0;0;0;0;0;0;0;6
535;2926301.0;292630;Riachão do Jacuípe;BA;29;0.0;-11.8067;-39.3818;0;0;0;0;0;0;0;0;0;6;6
536;3508504.0;350850;Caçapava;SP;35;0.0;-23.0992;-45.7076;0;5;0;0;0;0;0;0;0;1;6
537;3540705.0;354070;Porto Ferreira;SP;35;0.0;-21.8498;-47.487;0;6;0;0;0;0;0;0;0;0;6
538;3160702.0;316070;Santos Dumont;MG;31;0.0;-21.4634;-43.5499;0;6;0;0;0;0;0;0;0;0;6
539;3550605.0;355060;São Roque;SP;35;0.0;-23.5226;-47.1357;0;5;0;0;0;0;0;0;0;0;5
540;3500105.0;350010;Adamantina;SP;35;0.0;-21.682;-51.0737;0;5;0;0;0;0;0;0;0;0;5
541;5210000.0;521000;Inhumas;GO;52;0.0;-16.3611;-49.5001;0;0;0;0;0;0;0;0;0;5;5
542;5212501.0;521250;Luziânia;GO;52;0.0;-16.253;-47.95;0;5;0;0;0;0;0;0;0;0;5
543;3302106.0;330210;Itaocara;RJ;33;0.0;-21.6748;-42.0758;4;0;0;0;0;0;0;0;0;1;5
544;3526803.0;352680;Lençóis Paulista;SP;35;0.0;-22.6027;-48.8037;5;0;0;0;0;0;0;0;0;0;5
545;3300456.0;330045;Belford Roxo;RJ;33;0.0;-22.764;-43.3992;0;0;0;0;0;0;0;0;0;5;5
546;2927903.0;292790;Santa Inês;BA;29;0.0;-13.2793;-39.814;0;0;0;0;0;0;0;0;0;5;5
547;2511202.0;251120;Pedras de Fogo;PB;25;0.0;-7.39107;-35.1065;0;0;0;0;0;0;0;0;0;5;5
548;2101608.0;210160;Barra do Corda;MA;21;0.0;-5.49682;-45.2485;0;0;0;0;0;0;0;0;0;5;5
549;1600204.0;160020;Calçoene;ap;16;0.0;2.50475;-50.9512;0;0;0;0;0;0;0;0;0;5;5
550;2109007.0;210900;Porto Franco;MA;21;0.0;-6.34149;-47.3962;0;0;0;0;0;0;0;0;0;4;4
551;3162203.0;316220;São João Batista do Glória;MG;31;0.0;-20.635;-46.508;0;0;0;0;0;0;0;0;0;4;4
552;2903003.0;290300;Barra do Mendes;BA;29;0.0;-11.81;-42.059;0;0;0;0;0;0;0;0;0;4;4
553;1503804.0;150380;Jacundá;PA;15;0.0;-4.44617;-49.1153;0;0;0;0;0;0;0;0;0;4;4
554;2928802.0;292880;Santo Estêvão;BA;29;0.0;-12.428;-39.2505;0;0;0;0;0;0;0;0;0;4;4
555;2917201.0;291720;Ituaçu;BA;29;0.0;-13.8107;-41.3003;0;0;0;0;0;0;0;0;0;4;4
556;2107357.0;210735;Nova Olinda do Maranhão;MA;21;0.0;-2.84227;-45.6953;0;0;0;0;0;0;0;0;0;4;4
557;1300607.0;130060;Benjamin Constant;AM;13;0.0;-4.377680000000002;-70.0342;0;0;0;0;0;0;0;0;0;4;4
558;2908507.0;290850;Conceição do Jacuípe;BA;29;0.0;-12.3268;-38.7684;0;0;0;0;0;0;0;0;0;4;4
559;3527306.0;352730;Louveira;SP;35;0.0;-23.0856;-46.9484;4;0;0;0;0;0;0;0;0;0;4
560;2930709.0;293070;Simões Filho;BA;29;0.0;-12.7866;-38.4029;0;0;0;0;0;0;0;0;0;4;4
561;2110005.0;211000;Santa Luzia;MA;21;0.0;-4.06873;-45.69;0;0;0;0;0;0;0;0;0;4;4
562;2314003.0;231400;Várzea Alegre;CE;23;0.0;-6.78264;-39.2942;0;0;0;0;0;0;0;0;0;4;4
563;2906006.0;290600;Campo Formoso;BA;29;0.0;-10.5105;-40.32;0;0;0;0;0;0;0;0;0;4;4
564;4308003.0;430800;Faxinal do Soturno;RS;43;0.0;-29.5788;-53.4484;0;0;0;0;0;0;0;0;0;4;4
565;2914000.0;291400;Ipirá;BA;29;0.0;-12.1561;-39.7359;0;0;0;0;0;0;0;0;0;4;4
566;2109809.0;210980;Santa Helena;MA;21;0.0;-2.24426;-45.29;0;0;0;0;0;0;0;0;0;4;4
567;4310603.0;431060;Itaqui;RS;43;0.0;-29.1311;-56.5515;0;0;0;0;0;0;0;0;0;4;4
568;2601607.0;260160;Belém do São Francisco;PE;26;0.0;-8.75046;-38.9623;0;0;0;0;0;0;0;0;0;4;4
569;3301306.0;330130;Casimiro de Abreu;RJ;33;0.0;-22.4812;-42.2066;0;0;0;0;0;0;0;0;0;4;4
570;2802908.0;280290;Itabaiana;SE;28;0.0;-10.6826;-37.4273;0;0;0;0;0;0;0;0;0;4;4
571;5220603.0;522060;Silvânia;GO;52;0.0;-16.66;-48.6083;0;0;0;0;0;0;0;0;0;4;4
572;4119301.0;411930;Pinhão;PR;41;0.0;-25.6944;-51.6536;0;0;0;0;0;0;0;0;0;4;4
573;1100288.0;110028;Rolim de Moura;RO;11;0.0;-11.7271;-61.7714;0;0;0;0;0;0;0;0;0;4;4
574;1500107.0;150010;Abaetetuba;PA;15;0.0;-1.72183;-48.8788;0;0;0;0;0;0;0;0;0;4;4
575;3523206.0;352320;Itararé;SP;35;0.0;-24.1085;-49.3352;0;0;0;0;0;0;0;0;0;4;4
576;2105401.0;210540;Itapecuru Mirim;MA;21;0.0;-3.40202;-44.3508;0;0;0;0;0;0;0;0;0;4;4
577;2605707.0;260570;Floresta;PE;26;0.0;-8.603069999999999;-38.5687;0;0;0;0;0;0;0;0;0;4;4
578;1502707.0;150270;Conceição do Araguaia;PA;15;0.0;-8.26136;-49.2689;0;0;0;0;0;0;0;0;0;4;4
579;3302502.0;330250;Magé;RJ;33;0.0;-22.6632;-43.0315;0;0;0;0;0;0;0;0;0;4;4
580;2303303.0;230330;Cariús;CE;23;0.0;-6.52428;-39.4916;0;0;0;0;0;0;0;0;0;3;3
581;2303709.0;230370;Caucaia;CE;23;0.0;-3.72797;-38.6619;0;0;0;0;0;0;0;0;0;3;3
582;1504307.0;150430;Maracanã;PA;15;0.0;-0.778899;-47.452;0;0;0;0;0;0;0;0;0;3;3
583;1500404.0;150040;Alenquer;PA;15;0.0;-1.94623;-54.7384;0;0;0;0;0;0;0;0;0;3;3
584;4313508.0;431350;Osório;RS;43;0.0;-29.8881;-50.2667;0;0;0;0;0;0;0;0;0;3;3
585;2207801.0;220780;Paulistana;PI;22;0.0;-8.134360000000001;-41.1431;0;0;0;0;0;0;0;0;0;3;3
586;4314605.0;431460;Piratini;RS;43;0.0;-31.4473;-53.0973;0;0;0;0;0;0;0;0;0;3;3
587;4114609.0;411460;Marechal Cândido Rondon;PR;41;0.0;-24.557;-54.0571;0;0;0;0;0;0;0;0;0;3;3
588;4216503.0;421650;São Joaquim;SC;42;0.0;-28.2887;-49.9457;0;0;0;0;0;0;0;0;0;3;3
589;3169703.0;316970;Turmalina;MG;31;0.0;-17.2828;-42.7285;0;0;0;0;0;0;0;0;0;3;3
590;3547304.0;354730;Santana de Parnaíba;SP;35;0.0;-23.4439;-46.9178;0;0;0;0;0;0;0;0;0;3;3
591;4216008.0;421600;São Carlos;SC;42;0.0;-27.0798;-53.0037;0;0;0;0;0;0;0;0;0;3;3
592;1507953.0;150795;Tailândia;PA;15;0.0;-2.94584;-48.9489;0;0;0;0;0;0;0;0;0;3;3
593;3302908.0;330290;Miguel Pereira;RJ;33;0.0;-22.4572;-43.4803;0;0;0;0;0;0;0;0;0;3;3
594;1508126.0;150812;Ulianópolis;PA;15;0.0;-3.75007;-47.4892;0;0;0;0;0;0;0;0;0;3;3
595;2917607.0;291760;Jaguaquara;BA;29;0.0;-13.5248;-39.964;0;0;0;0;0;0;0;0;0;3;3
596;4207908.0;420790;Irineópolis;SC;42;0.0;-26.242;-50.7957;0;0;0;0;0;0;0;0;0;3;3
597;2100055.0;210005;Açailândia;MA;21;0.0;-4.94714;-47.5004;0;0;0;0;0;0;0;0;0;3;3
598;2104057.0;210405;Estreito;MA;21;0.0;-6.56077;-47.4431;0;0;0;0;0;0;0;0;0;3;3
599;2923001.0;292300;Nova Viçosa;BA;29;0.0;-17.8926;-39.3743;0;0;0;0;0;0;0;0;0;3;3
600;3101706.0;310170;Almenara;MG;31;0.0;-16.1785;-40.6942;0;0;0;0;0;0;0;0;0;3;3
601;2103307.0;210330;Codó;MA;21;0.0;-4.45562;-43.8924;0;0;0;0;0;0;0;0;0;3;3
602;1304203.0;130420;Tefé;AM;13;0.0;-3.3682199999999995;-64.7193;0;0;0;0;0;0;0;0;0;3;3
603;1304062.0;130406;Tabatinga;AM;13;0.0;-4.2416;-69.9383;0;0;0;0;0;0;0;0;0;3;3
604;5212204.0;521220;Jussara;GO;52;0.0;-15.8659;-50.8668;0;0;0;0;0;0;0;0;0;3;3
605;2604007.0;260400;Carpina;PE;26;0.0;-7.84566;-35.2514;0;0;0;0;0;0;0;0;0;3;3
606;5101704.0;510170;Barra do Bugres;MT;51;0.0;-15.0702;-57.1878;0;0;0;0;0;0;0;0;0;3;3
607;2902708.0;290270;Barra;BA;29;0.0;-11.0859;-43.1459;0;0;0;0;0;0;0;0;0;3;3
608;2509206.0;250920;Massaranduba;PB;25;0.0;-7.18995;-35.7848;1;0;0;0;0;0;1;0;0;1;3
609;2605103.0;260510;Custódia;PE;26;0.0;-8.085460000000001;-37.6443;0;0;0;0;0;0;0;0;0;3;3
610;3141801.0;314180;Minas Novas;MG;31;0.0;-17.2156;-42.5884;0;0;0;0;0;0;0;0;0;3;3
611;2312205.0;231220;Santa Quitéria;CE;23;0.0;-4.32608;-40.1523;0;0;0;0;0;0;0;0;0;3;3
612;3132503.0;313250;Itamarandiba;MG;31;0.0;-17.8552;-42.8561;0;0;0;0;0;0;0;0;0;3;3
613;5007554.0;500755;Santa Rita do Pardo;MS;50;0.0;-21.3016;-52.8333;0;0;0;0;0;0;0;0;0;3;3
614;5006309.0;500630;Paranaíba;MS;50;0.0;-19.6746;-51.1909;0;0;0;0;0;0;0;0;0;3;3
615;5208004.0;520800;Formosa;GO;52;0.0;-15.54;-47.337;0;0;0;0;0;0;0;0;0;3;3
616;1301209.0;130120;Coari;AM;13;0.0;-4.094119999999998;-63.1441;0;0;0;0;0;0;0;0;0;3;3
617;2106102.0;210610;Loreto;MA;21;0.0;-7.0811100000000025;-45.1451;0;0;0;0;0;0;0;0;0;2;2
618;2303907.0;230390;Chaval;CE;23;0.0;-3.03571;-41.2435;0;0;0;0;0;0;0;0;0;2;2
619;4110508.0;411050;Ipiranga;PR;41;0.0;-25.0238;-50.5794;0;0;0;0;0;0;0;0;0;2;2
620;2106904.0;210690;Monção;MA;21;0.0;-3.48125;-45.2496;0;0;0;0;0;0;0;0;0;2;2
621;3521804.0;352180;Itaí;SP;35;0.0;-23.4213;-49.092;0;0;0;0;0;0;0;0;0;2;2
622;2107001.0;210700;Montes Altos;MA;21;0.0;-5.83067;-47.0673;0;0;0;0;0;0;0;0;0;2;2
623;2516508.0;251650;Taperoá;PB;25;0.0;-7.206289999999999;-36.8245;0;0;0;0;0;0;0;0;0;2;2
624;4112108.0;411210;Jandaia do Sul;PR;41;0.0;-23.6011;-51.6448;0;0;0;0;0;0;0;0;0;2;2
625;3520400.0;352040;Ilhabela;SP;35;0.0;-23.7785;-45.3552;0;0;0;0;0;0;0;0;0;2;2
626;4113502.0;411350;Loanda;PR;41;0.0;-22.9232;-53.1362;0;0;0;0;0;0;0;0;0;2;2
627;2610608.0;261060;Paudalho;PE;26;0.0;-7.90287;-35.1716;0;0;0;0;0;0;0;0;0;2;2
628;2105500.0;210550;João Lisboa;MA;21;0.0;-5.4436300000000015;-47.4064;0;0;0;0;0;0;0;0;0;2;2
629;4114302.0;411430;Mandirituba;PR;41;0.0;-25.777;-49.3282;0;0;0;0;0;0;0;0;0;2;2
630;4114401.0;411440;Mangueirinha;PR;41;0.0;-25.9421;-52.1743;0;0;0;0;0;0;0;0;0;2;2
631;2611002.0;261100;Petrolândia;PE;26;0.0;-9.06863;-38.3027;0;0;0;0;0;0;0;0;0;2;2
632;2702405.0;270240;Delmiro Gouveia;AL;27;0.0;-9.38534;-37.9987;0;0;0;0;0;0;0;0;0;2;2
633;2104800.0;210480;Grajaú;MA;21;0.0;-5.81367;-46.1462;0;0;0;0;0;0;0;0;0;2;2
634;4117701.0;411770;Palmeira;PR;41;0.0;-25.4257;-50.007;0;0;0;0;0;0;0;0;0;2;2
635;2704401.0;270440;Major Isidoro;AL;27;0.0;-9.53009;-36.992;0;0;0;0;0;0;0;0;0;2;2
636;2708501.0;270850;São Luís do Quitunde;AL;27;0.0;-9.31816;-35.5606;0;0;0;0;0;0;0;0;0;2;2
637;4119103.0;411910;Piên;PR;41;0.0;-26.0965;-49.4336;0;0;0;0;0;0;0;0;0;2;2
638;2801306.0;280130;Capela;SE;28;0.0;-10.5069;-37.0628;0;0;0;0;0;0;0;0;0;2;2
639;4119608.0;411960;Pitanga;PR;41;0.0;-24.7588;-51.7596;0;0;0;0;0;0;0;0;0;2;2
640;2509701.0;250970;Monteiro;PB;25;0.0;-7.88363;-37.1184;0;0;0;0;0;0;0;0;0;2;2
641;4107207.0;410720;Dois Vizinhos;PR;41;0.0;-25.7407;-53.057;0;0;0;0;0;0;0;0;0;2;2
642;3526407.0;352640;Laranjal Paulista;SP;35;0.0;-23.0506;-47.8375;0;0;0;0;0;0;0;0;0;2;2
643;2110104.0;211010;Santa Quitéria do Maranhão;MA;21;0.0;-3.4930800000000004;-42.5688;0;0;0;0;0;0;0;0;0;2;2
644;2306009.0;230600;Iracema;CE;23;0.0;-5.8124;-38.2919;0;0;0;0;0;0;0;0;0;2;2
645;2307502.0;230750;Lavras da Mangabeira;CE;23;0.0;-6.7448;-38.9706;0;0;0;0;0;0;0;0;0;2;2
646;2301604.0;230160;Assaré;CE;23;0.0;-6.8669;-39.8689;0;0;0;0;0;0;0;0;0;2;2
647;4120358.0;412035;Pranchita;PR;41;0.0;-26.0209;-53.7397;0;0;0;0;0;0;0;0;0;2;2
648;2206209.0;220620;Miguel Alves;PI;22;0.0;-4.16857;-42.8963;0;0;0;0;0;0;0;0;0;2;2
649;2200202.0;220020;Água Branca;PI;22;0.0;-5.88856;-42.637;0;0;0;0;0;0;0;0;0;2;2
650;2114007.0;211400;Zé Doca;MA;21;0.0;-3.27014;-45.6553;0;0;0;0;0;0;0;0;0;2;2
651;2308104.0;230810;Mauriti;CE;23;0.0;-7.385969999999999;-38.7708;0;0;0;0;0;0;0;0;0;2;2
652;3542404.0;354240;Regente Feijó;SP;35;0.0;-22.2181;-51.3055;0;0;0;0;0;0;0;0;0;2;2
653;2311306.0;231130;Quixadá;CE;23;0.0;-4.9663;-39.0155;0;0;0;0;0;0;0;0;0;2;2
654;3537404.0;353740;Pereira Barreto;SP;35;0.0;-20.6368;-51.1123;0;0;0;0;0;0;0;0;0;2;2
655;2112209.0;211220;Timon;MA;21;0.0;-5.09769;-42.8329;0;0;0;0;0;0;0;0;0;2;2
656;2112100.0;211210;Timbiras;MA;21;0.0;-4.25597;-43.932;0;0;0;0;0;0;0;0;0;2;2
657;2313401.0;231340;Tianguá;CE;23;0.0;-3.72965;-40.9923;0;0;0;0;0;0;0;0;0;2;2
658;4108601.0;410860;Goioerê;PR;41;0.0;-24.1835;-53.0248;0;0;0;0;0;0;0;0;0;2;2
659;2313807.0;231380;Uruburetama;CE;23;0.0;-3.62316;-39.5107;0;0;0;0;0;0;0;0;0;2;2
660;2110039.0;211003;Santa Luzia do Paruá;MA;21;0.0;-2.51123;-45.7801;0;0;0;0;0;0;0;0;0;2;2
661;2400208.0;240020;Açu;RN;24;0.0;-5.58362;-36.914;0;0;0;0;0;0;0;0;0;2;2
662;2402600.0;240260;Ceará-Mirim;RN;24;0.0;-5.64323;-35.4247;0;0;0;0;0;0;0;0;0;2;2
663;2406502.0;240650;Lagoa Nova;RN;24;0.0;-6.09339;-36.4703;0;0;0;0;0;0;0;0;0;2;2
664;2506004.0;250600;Esperança;PB;25;0.0;-7.02278;-35.8597;0;0;0;0;0;0;0;0;0;2;2
665;2108454.0;210845;Peritoró;MA;21;0.0;-4.37459;-44.3369;0;0;0;0;0;0;0;0;0;2;2
666;4105706.0;410570;Clevelândia;PR;41;0.0;-26.4043;-52.3508;0;0;0;0;0;0;0;0;0;2;2
667;4106506.0;410650;Coronel Vivida;PR;41;0.0;-25.9767;-52.5641;0;0;0;0;0;0;0;0;0;2;2
668;4106803.0;410680;Cruz Machado;PR;41;0.0;-26.0166;-51.343;0;0;0;0;0;0;0;0;0;2;2
669;2508406.0;250840;Lastro;PB;25;0.0;-6.50603;-38.1742;0;0;0;0;0;0;0;0;0;2;2
670;2305803.0;230580;Ipu;CE;23;0.0;-4.3174800000000015;-40.7059;0;0;0;0;0;0;0;0;0;2;2
671;4107652.0;410765;Fazenda Rio Grande;PR;41;0.0;-25.6624;-49.3073;0;0;0;0;0;0;0;0;0;2;2
672;2301109.0;230110;Aracati;CE;23;0.0;-4.55826;-37.7679;0;0;0;0;0;0;0;0;0;2;2
673;1508308.0;150830;Viseu;PA;15;0.0;-1.19124;-46.1399;0;0;0;0;0;0;0;0;0;2;2
674;4121000.0;412100;Querência do Norte;PR;41;0.0;-23.0838;-53.483;0;0;0;0;0;0;0;0;0;2;2
675;4320909.0;432090;Tapejara;RS;43;0.0;-28.0652;-52.0097;0;0;0;0;0;0;0;0;0;2;2
676;1302405.0;130240;Lábrea;AM;13;0.0;-7.2641300000000015;-64.7948;0;0;0;0;0;0;0;0;0;2;2
677;1303403.0;130340;Parintins;AM;13;0.0;-2.63741;-56.729;0;0;0;0;0;0;0;0;0;2;2
678;5107008.0;510700;Poxoréo;MT;51;0.0;-15.8299;-54.4208;0;0;0;0;0;0;0;0;0;2;2
679;5106802.0;510680;Porto dos Gaúchos;MT;51;0.0;-11.533;-57.4132;0;0;0;0;0;0;0;0;0;2;2
680;5106752.0;510675;Pontes e Lacerda;MT;51;0.0;-15.2219;-59.3435;0;0;0;0;0;0;0;0;0;2;2
681;5106505.0;510650;Poconé;MT;51;0.0;-16.266;-56.6261;0;0;0;0;0;0;0;0;0;2;2
682;5106422.0;510642;Peixoto de Azevedo;MT;51;0.0;-10.2262;-54.9794;0;0;0;0;0;0;0;0;0;2;2
683;5106232.0;510623;Nova Olímpia;MT;51;0.0;-14.7889;-57.2886;0;0;0;0;0;0;0;0;0;2;2
684;5105903.0;510590;Nobres;MT;51;0.0;-14.7192;-56.3284;0;0;0;0;0;0;0;0;0;2;2
685;1303536.0;130353;Presidente Figueiredo;AM;13;0.0;-2.02981;-60.0234;0;0;0;0;0;0;0;0;0;2;2
686;5105101.0;510510;Juara;MT;51;0.0;-11.2639;-57.5244;0;0;0;0;0;0;0;0;0;2;2
687;5103502.0;510350;Diamantino;MT;51;0.0;-14.4037;-56.4366;0;0;0;0;0;0;0;0;0;2;2
688;1303569.0;130356;Rio Preto da Eva;AM;13;0.0;-2.7045;-59.6858;0;0;0;0;0;0;0;0;0;2;2
689;5103353.0;510335;Confresa;MT;51;0.0;-10.6437;-51.5699;0;0;0;0;0;0;0;0;0;2;2
690;1303809.0;130380;São Gabriel da Cachoeira;AM;13;0.0;-0.11909000000000006;-67.084;0;0;0;0;0;0;0;0;0;2;2
691;5006002.0;500600;Nova Alvorada do Sul;MS;50;0.0;-21.4657;-54.3825;0;0;0;0;0;0;0;0;0;2;2
692;5005400.0;500540;Maracaju;MS;50;0.0;-21.6105;-55.1678;0;0;0;0;0;0;0;0;0;2;2
693;5002951.0;500295;Chapadão do Sul;MS;50;0.0;-18.788;-52.6263;0;0;0;0;0;0;0;0;0;2;2
694;5001003.0;500100;Aparecida do Taboado;MS;50;0.0;-20.0873;-51.0961;0;0;0;0;0;0;0;0;0;2;2
695;1302306.0;130230;Jutaí;AM;13;0.0;-2.75814;-66.7595;0;0;0;0;0;0;0;0;0;2;2
696;1301704.0;130170;Humaitá;AM;13;0.0;-7.511710000000001;-63.0327;0;0;0;0;0;0;0;0;0;2;2
697;5203500.0;520350;Bom Jesus de Goiás;GO;52;0.0;-18.2173;-49.74;0;0;0;0;0;0;0;0;0;2;2
698;5214606.0;521460;Niquelândia;GO;52;0.0;-14.4662;-48.4599;0;0;0;0;0;0;0;0;0;2;2
699;1100056.0;110005;Cerejeiras;RO;11;0.0;-13.187;-60.8168;0;0;0;0;0;0;0;0;0;2;2
700;1100155.0;110015;Ouro Preto do Oeste;RO;11;0.0;-10.7167;-62.2565;0;0;0;0;0;0;0;0;0;2;2
701;1200385.0;120038;Plácido de Castro;AC;12;0.0;-10.2806;-67.1371;0;0;0;0;0;0;0;0;0;2;2
702;5218003.0;521800;Porangatu;GO;52;0.0;-13.4391;-49.1503;0;0;0;0;0;0;0;0;0;2;2
703;5217401.0;521740;Pires do Rio;GO;52;0.0;-17.3019;-48.2768;0;0;0;0;0;0;0;0;0;2;2
704;5217203.0;521720;Piranhas;GO;52;0.0;-16.4258;-51.8235;0;0;0;0;0;0;0;0;0;2;2
705;5217104.0;521710;Piracanjuba;GO;52;0.0;-17.302;-49.017;0;0;0;0;0;0;0;0;0;2;2
706;5215603.0;521560;Padre Bernardo;GO;52;0.0;-15.1605;-48.2833;0;0;0;0;0;0;0;0;0;2;2
707;5213806.0;521380;Morrinhos;GO;52;0.0;-17.7334;-49.1059;0;0;0;0;0;0;0;0;0;2;2
708;5203906.0;520390;Buriti Alegre;GO;52;0.0;-18.1378;-49.0404;0;0;0;0;0;0;0;0;0;2;2
709;1300144.0;130014;Apuí;AM;13;0.0;-7.194089999999999;-59.896;0;0;0;0;0;0;0;0;0;2;2
710;5211800.0;521180;Jaraguá;GO;52;0.0;-15.7529;-49.3344;0;0;0;0;0;0;0;0;0;2;2
711;1300300.0;130030;Autazes;AM;13;0.0;-3.58574;-59.1256;0;0;0;0;0;0;0;0;0;2;2
712;5210901.0;521090;Itapaci;GO;52;0.0;-14.9522;-49.5511;0;0;0;0;0;0;0;0;0;2;2
713;5210208.0;521020;Iporá;GO;52;0.0;-16.4398;-51.118;0;0;0;0;0;0;0;0;0;2;2
714;5209101.0;520910;Goiatuba;GO;52;0.0;-18.0105;-49.3658;0;0;0;0;0;0;0;0;0;2;2
715;1300805.0;130080;Borba;AM;13;0.0;-4.39154;-59.5874;0;0;0;0;0;0;0;0;0;2;2
716;1301605.0;130160;Fonte Boa;AM;13;0.0;-2.52342;-66.0942;0;0;0;0;0;0;0;0;0;2;2
717;4322905.0;432290;Viadutos;RS;43;0.0;-27.5716;-52.0211;0;0;0;0;0;0;0;0;0;2;2
718;4320701.0;432070;Sobradinho;RS;43;0.0;-29.4194;-53.0326;0;0;0;0;0;0;0;0;0;2;2
719;2102325.0;210232;Buriticupu;MA;21;0.0;-4.32375;-46.4409;0;0;0;0;0;0;0;0;0;2;2
720;4320677.0;432067;Sinimbu;RS;43;0.0;-29.5357;-52.5304;0;0;0;0;0;0;0;0;0;2;2
721;4214508.0;421450;Rio do Campo;SC;42;0.0;-26.9452;-50.136;0;0;0;0;0;0;0;0;0;2;2
722;4213401.0;421340;Ponte Serrada;SC;42;0.0;-26.8733;-52.0112;0;0;0;0;0;0;0;0;0;2;2
723;4212106.0;421210;Palmitos;SC;42;0.0;-27.0702;-53.1586;0;0;0;0;0;0;0;0;0;2;2
724;4211900.0;421190;Palhoça;SC;42;0.0;-27.6455;-48.6697;0;0;0;0;0;0;0;0;0;2;2
725;4211207.0;421120;Morro da Fumaça;SC;42;0.0;-28.6511;-49.2169;0;0;0;0;0;0;0;0;0;2;2
726;4210001.0;421000;Luiz Alves;SC;42;0.0;-26.7151;-48.9322;0;0;0;0;0;0;0;0;0;2;2
727;4209409.0;420940;Laguna;SC;42;0.0;-28.4843;-48.7772;0;0;0;0;0;0;0;0;0;2;2
728;3511508.0;351150;Cerquilho;SP;35;0.0;-23.1665;-47.7459;0;0;0;0;0;0;0;0;0;2;2
729;4208401.0;420840;Itapiranga;SC;42;0.0;-27.1659;-53.7166;0;0;0;0;0;0;0;0;0;2;2
730;4207601.0;420760;Ipira;SC;42;0.0;-27.4038;-51.7758;0;0;0;0;0;0;0;0;0;2;2
731;1702554.0;170255;Augustinópolis;TO;17;0.0;-5.46863;-47.8863;0;0;0;0;0;0;0;0;0;2;2
732;4205001.0;420500;Dionísio Cerqueira;SC;42;0.0;-26.2648;-53.6351;0;0;0;0;0;0;0;0;0;2;2
733;1713205.0;171320;Miracema do Tocantins;TO;17;0.0;-9.56556;-48.393;0;0;0;0;0;0;0;0;0;2;2
734;4203501.0;420350;Campo Erê;SC;42;0.0;-26.3931;-53.0856;0;0;0;0;0;0;0;0;0;2;2
735;2100436.0;210043;Alto Alegre do Maranhão;MA;21;0.0;-4.213;-44.44600000000001;0;0;0;0;0;0;0;0;0;2;2
736;2100477.0;210047;Alto Alegre do Pindaré;MA;21;0.0;-3.66689;-45.8421;0;0;0;0;0;0;0;0;0;2;2
737;2100907.0;210090;Araioses;MA;21;0.0;-2.89091;-41.905;0;0;0;0;0;0;0;0;0;2;2
738;2101004.0;210100;Arari;MA;21;0.0;-3.45214;-44.7665;0;0;0;0;0;0;0;0;0;2;2
739;2101707.0;210170;Barreirinhas;MA;21;0.0;-2.75863;-42.8232;0;0;0;0;0;0;0;0;0;2;2
740;1507607.0;150760;São Miguel do Guamá;PA;15;0.0;-1.61307;-47.4784;0;0;0;0;0;0;0;0;0;2;2
741;4216909.0;421690;São Lourenço do Oeste;SC;42;0.0;-26.3557;-52.8498;0;0;0;0;0;0;0;0;0;2;2
742;1507300.0;150730;São Félix do Xingu;PA;15;0.0;-6.64254;-51.9904;0;0;0;0;0;0;0;0;0;2;2
743;1504703.0;150470;Moju;PA;15;0.0;-1.88993;-48.7668;0;0;0;0;0;0;0;0;0;2;2
744;4318903.0;431890;São Luiz Gonzaga;RS;43;0.0;-28.412;-54.9559;0;0;0;0;0;0;0;0;0;2;2
745;1502939.0;150293;Dom Eliseu;PA;15;0.0;-4.19944;-47.8245;0;0;0;0;0;0;0;0;0;2;2
746;4316303.0;431630;Roque Gonzales;RS;43;0.0;-28.1297;-55.0266;0;0;0;0;0;0;0;0;0;2;2
747;4316105.0;431610;Ronda Alta;RS;43;0.0;-27.7758;-52.8056;0;0;0;0;0;0;0;0;0;2;2
748;1503200.0;150320;Igarapé-Açu;PA;15;0.0;-1.12539;-47.62600000000001;0;0;0;0;0;0;0;0;0;2;2
749;4310504.0;431050;Iraí;RS;43;0.0;-27.1951;-53.2543;0;0;0;0;0;0;0;0;0;2;2
750;4309605.0;430960;Horizontina;RS;43;0.0;-27.6282;-54.3053;0;0;0;0;0;0;0;0;0;2;2
751;4308607.0;430860;Garibaldi;RS;43;0.0;-29.259;-51.5352;0;0;0;0;0;0;0;0;0;2;2
752;1505064.0;150506;Novo Repartimento;PA;15;0.0;-4.24749;-49.9499;0;0;0;0;0;0;0;0;0;2;2
753;4219705.0;421970;Xaxim;SC;42;0.0;-26.9596;-52.5374;0;0;0;0;0;0;0;0;0;2;2
754;4306403.0;430640;Dois Irmãos;RS;43;0.0;-29.5836;-51.0898;0;0;0;0;0;0;0;0;0;2;2
755;4305801.0;430580;Constantina;RS;43;0.0;-27.732;-52.9938;0;0;0;0;0;0;0;0;0;2;2
756;4305306.0;430530;Chapada;RS;43;0.0;-28.0559;-53.0665;0;0;0;0;0;0;0;0;0;2;2
757;1505650.0;150565;Placas;PA;15;0.0;-3.86813;-54.2124;0;0;0;0;0;0;0;0;0;2;2
758;1506187.0;150618;Rondon do Pará;PA;15;0.0;-4.7779300000000005;-48.067;0;0;0;0;0;0;0;0;0;2;2
759;4302709.0;430270;Butiá;RS;43;0.0;-30.1179;-51.9601;0;0;0;0;0;0;0;0;0;2;2
760;1506195.0;150619;Rurópolis;PA;15;0.0;-4.1002800000000015;-54.9092;0;0;0;0;0;0;0;0;0;2;2
761;1506203.0;150620;Salinópolis;PA;15;0.0;-0.630815;-47.3465;0;0;0;0;0;0;0;0;0;2;2
762;2802106.0;280210;Estância;SE;28;0.0;-11.2659;-37.4484;0;0;0;0;0;0;0;0;0;2;2
763;1100015.0;110001;Alta Floresta D'Oeste;RO;11;0.0;-11.9283;-61.9953;0;0;0;0;0;0;0;0;0;2;2
764;3100302.0;310030;Abre Campo;MG;31;0.0;-20.2996;-42.4743;0;0;0;0;0;0;0;0;0;2;2
765;3113206.0;311320;Carandaí;MG;31;0.0;-20.9566;-43.81100000000001;0;0;0;0;0;0;0;0;0;2;2
766;3204351.0;320435;Rio Bananal;ES;32;0.0;-19.2719;-40.3366;0;0;0;0;0;0;0;0;0;2;2
767;2914406.0;291440;Iraquara;BA;29;0.0;-12.2429;-41.6155;0;0;0;0;0;0;0;0;0;2;2
768;3505203.0;350520;Bariri;SP;35;0.0;-22.073;-48.7438;0;0;0;0;0;0;0;0;0;2;2
769;3151909.0;315190;Pocrane;MG;31;0.0;-19.6208;-41.6334;0;0;0;0;0;0;0;0;0;2;2
770;2913903.0;291390;Ipiaú;BA;29;0.0;-14.1226;-39.7353;0;0;0;0;0;0;0;0;0;2;2
771;3102100.0;310210;Alto Rio Doce;MG;31;0.0;-21.0281;-43.4067;0;0;0;0;0;0;0;0;0;2;2
772;2929305.0;292930;São Gonçalo dos Campos;BA;29;0.0;-12.4331;-38.9663;0;0;0;0;0;0;0;0;0;2;2
773;2905107.0;290510;Caém;BA;29;0.0;-11.0677;-40.432;0;0;0;0;0;0;0;0;0;2;2
774;3170404.0;317040;Unaí;MG;31;0.0;-16.3592;-46.9022;0;0;0;0;0;0;0;0;0;2;2
775;3300803.0;330080;Cachoeiras de Macacu;RJ;33;0.0;-22.4658;-42.6523;0;0;0;0;0;0;0;0;0;2;2
776;3142205.0;314220;Miraí;MG;31;0.0;-21.2021;-42.6122;0;0;0;0;0;0;0;0;0;2;2
777;3102803.0;310280;Andrelândia;MG;31;0.0;-21.7411;-44.3117;0;0;0;0;0;0;0;0;0;2;2
778;3103405.0;310340;Araçuaí;MG;31;0.0;-16.8523;-42.0637;0;0;0;0;0;0;0;0;0;2;2
779;2908408.0;290840;Conceição do Coité;BA;29;0.0;-11.56;-39.2808;0;0;0;0;0;0;0;0;0;2;2
780;2923100.0;292310;Olindina;BA;29;0.0;-11.3497;-38.3379;0;0;0;0;0;0;0;0;0;2;2
781;3136306.0;313630;João Pinheiro;MG;31;0.0;-17.7398;-46.1715;0;0;0;0;0;0;0;0;0;2;2
782;2922102.0;292210;Mundo Novo;BA;29;0.0;-11.8541;-40.4714;0;0;0;0;0;0;0;0;0;2;2
783;3151107.0;315110;Pirapetinga;MG;31;0.0;-21.6554;-42.3434;0;0;0;0;0;0;0;0;0;2;2
784;3144706.0;314470;Nova Era;MG;31;0.0;-19.7577;-43.0333;0;0;0;0;0;0;0;0;0;2;2
785;2922003.0;292200;Mucuri;BA;29;0.0;-18.0754;-39.5565;0;0;0;0;0;0;0;0;0;2;2
786;2911907.0;291190;Iaçu;BA;29;0.0;-12.7666;-40.2056;0;0;0;0;0;0;0;0;0;2;2
787;2911105.0;291110;Formosa do Rio Preto;BA;29;0.0;-11.0328;-45.19300000000001;0;0;0;0;0;0;0;0;0;2;2
788;3300233.0;330023;Armação dos Búzios;RJ;33;0.0;-22.7528;-41.8846;0;0;0;0;0;0;0;0;0;2;2
789;3306156.0;330615;Varre-Sai;RJ;33;0.0;-20.9276;-41.8701;0;0;0;0;0;0;0;0;0;2;2
790;3150307.0;315030;Piedade do Rio Grande;MG;31;0.0;-21.469;-44.1938;0;0;0;0;0;0;0;0;0;2;2
791;2932606.0;293260;Urandi;BA;29;0.0;-14.7678;-42.6498;0;0;0;0;0;0;0;0;0;2;2
792;2921708.0;292170;Morro do Chapéu;BA;29;0.0;-11.5488;-41.1565;0;0;0;0;0;0;0;0;0;2;2
793;2909406.0;290940;Cotegipe;BA;29;0.0;-12.0228;-44.2566;0;0;0;0;0;0;0;0;0;2;2
794;2932309.0;293230;Ubatã;BA;29;0.0;-14.2063;-39.5207;0;0;0;0;0;0;0;0;0;2;2
795;2921302.0;292130;Milagres;BA;29;0.0;-12.8646;-39.8611;0;0;0;0;0;0;0;0;0;2;2
796;2919801.0;291980;Macaúbas;BA;29;0.0;-13.0186;-42.6945;0;0;0;0;0;0;0;0;0;2;2
797;2925204.0;292520;Pojuca;BA;29;0.0;-12.4303;-38.3374;0;0;0;0;0;0;0;0;0;2;2
798;2915601.0;291560;Itamaraju;BA;29;0.0;-17.0378;-39.5386;0;0;0;0;0;0;0;0;0;2;2
799;3202603.0;320260;Iconha;ES;32;0.0;-20.7913;-40.8132;0;0;0;0;0;0;0;0;0;2;2
800;3132107.0;313210;Itacarambi;MG;31;0.0;-15.089;-44.095;0;0;0;0;0;0;0;0;0;2;2
801;2933604.0;293360;Xique-Xique;BA;29;0.0;-10.823;-42.7245;0;0;0;0;0;0;0;0;0;2;2
802;3133303.0;313330;Itaobim;MG;31;0.0;-16.5571;-41.5017;0;0;0;0;0;0;0;0;0;2;2
803;3134400.0;313440;Iturama;MG;31;0.0;-19.7276;-50.1966;0;0;0;0;0;0;0;0;0;2;2
804;3133501.0;313350;Itapecerica;MG;31;0.0;-20.4704;-45.127;0;0;0;0;0;0;0;0;0;2;2
805;3509601.0;350960;Campo Limpo Paulista;SP;35;0.0;-23.2078;-46.7889;0;0;0;0;0;0;0;0;0;2;2
806;3510203.0;351020;Capão Bonito;SP;35;0.0;-24.0113;-48.3482;0;0;0;0;0;0;0;0;0;2;2
807;2928109.0;292810;Santa Maria da Vitória;BA;29;0.0;-13.3859;-44.2011;0;0;0;0;0;0;0;0;0;2;2
808;2916005.0;291600;Itanhém;BA;29;0.0;-17.1642;-40.3321;0;0;0;0;0;0;0;0;0;2;2
809;3131901.0;313190;Itabirito;MG;31;0.0;-20.2501;-43.8038;0;0;0;0;0;0;0;0;0;2;2
810;3202405.0;320240;Guarapari;ES;32;0.0;-20.6772;-40.5093;0;0;0;0;0;0;0;2;0;0;2
811;3135803.0;313580;Jequitinhonha;MG;31;0.0;-16.4375;-41.0117;0;0;0;0;0;0;0;0;0;2;2
812;2933455.0;293345;Wanderley;BA;29;0.0;-12.1144;-43.8958;0;0;0;0;0;0;0;0;0;2;2
813;3128006.0;312800;Guanhães;MG;31;0.0;-18.7713;-42.9312;0;0;0;0;0;0;0;0;0;2;2
814;2804508.0;280450;Nossa Senhora da Glória;SE;28;0.0;-10.2158;-37.4211;0;0;0;0;0;0;0;0;0;2;2
815;3155207.0;315520;Rio Espera;MG;31;0.0;-20.855;-43.4721;0;0;0;0;0;0;0;0;0;2;2
816;2901601.0;290160;Antas;BA;29;0.0;-10.3856;-38.3401;0;0;0;0;0;0;0;0;0;2;2
817;4311304.0;431130;Lagoa Vermelha;RS;43;0.0;-28.2093;-51.5248;0;0;0;0;0;0;0;0;0;1;1
818;1502103.0;150210;Cametá;PA;15;0.0;-2.24295;-49.4979;0;0;0;0;0;0;0;0;0;1;1
819;1501782.0;150178;Breu Branco;PA;15;0.0;-3.77191;-49.5735;0;0;0;0;0;0;0;0;0;1;1
820;3161007.0;316100;São Domingos do Prata;MG;31;0.0;-19.8678;-42.971;0;0;0;0;0;0;0;0;0;1;1
821;1501758.0;150175;Brejo Grande do Araguaia;PA;15;0.0;-5.69822;-48.4103;0;0;0;0;0;0;0;0;0;1;1
822;4318408.0;431840;São Jerônimo;RS;43;0.0;-29.9716;-51.7251;0;0;0;0;0;0;0;0;0;1;1
823;4311106.0;431110;Jaguari;RS;43;0.0;-29.4936;-54.703;0;0;0;0;0;0;0;0;0;1;1
824;1502152.0;150215;Canaã dos Carajás;PA;15;0.0;-6.49659;-49.8776;0;0;0;0;0;0;0;0;0;1;1
825;4311007.0;431100;Jaguarão;RS;43;0.0;-32.5604;-53.377;0;0;0;0;0;0;0;0;0;1;1
826;3165305.0;316530;São Vicente de Minas;MG;31;0.0;-21.7042;-44.4431;0;0;0;0;0;0;0;0;0;1;1
827;1504406.0;150440;Marapanim;PA;15;0.0;-0.7147020000000001;-47.7034;0;0;0;0;0;0;0;0;0;1;1
828;1504505.0;150450;Melgaço;PA;15;0.0;-1.8032;-50.7149;0;0;0;0;0;0;0;0;0;1;1
829;1504604.0;150460;Mocajuba;PA;15;0.0;-2.5831;-49.5042;0;0;0;0;0;0;0;0;0;1;1
830;1501451.0;150145;Belterra;PA;15;0.0;-2.6360900000000003;-54.9374;0;0;0;0;0;0;0;0;0;1;1
831;2933000.0;293300;Valente;BA;29;0.0;-11.4062;-39.457;0;0;0;0;0;0;0;0;0;1;1
832;4312500.0;431250;Mostardas;RS;43;0.0;-31.1054;-50.9167;0;0;0;0;0;0;0;0;0;1;1
833;4312054.0;431205;Marques de Souza;RS;43;0.0;-29.3311;-52.0973;0;0;0;0;0;0;0;0;0;1;1
834;4314308.0;431430;Pejuçara;RS;43;0.0;-28.4283;-53.6579;0;0;0;0;0;0;0;0;0;1;1
835;3162005.0;316200;São Gonçalo do Sapucaí;MG;31;0.0;-21.8932;-45.5893;0;0;0;0;0;0;0;0;0;1;1
836;4315156.0;431515;Progresso;RS;43;0.0;-29.2441;-52.3197;0;0;0;0;0;0;0;0;0;1;1
837;4315107.0;431510;Porto Xavier;RS;43;0.0;-27.9082;-55.1379;0;0;0;0;0;0;0;0;0;1;1
838;1503408.0;150340;Inhangapi;PA;15;0.0;-1.4349;-47.9114;0;0;0;0;0;0;0;0;0;1;1
839;4314704.0;431470;Planalto;RS;43;0.0;-27.3297;-53.0575;0;0;0;0;0;0;0;0;0;1;1
840;4316204.0;431620;Rondinha;RS;43;0.0;-27.8315;-52.9081;0;0;0;0;0;0;0;0;0;1;1
841;2933257.0;293325;Vereda;BA;29;0.0;-17.2183;-40.0974;0;0;0;0;0;0;0;0;0;1;1
842;1503101.0;150310;Gurupá;PA;15;0.0;-1.41412;-51.6338;0;0;0;0;0;0;0;0;0;1;1
843;4314506.0;431450;Pinheiro Machado;RS;43;0.0;-31.5794;-53.3798;0;0;0;0;0;0;0;0;0;1;1
844;2931301.0;293130;Tapiramutá;BA;29;0.0;-11.8475;-40.7927;0;0;0;0;0;0;0;0;0;1;1
845;1503457.0;150345;Ipixuna do Pará;PA;15;0.0;-2.55992;-47.5059;0;0;0;0;0;0;0;0;0;1;1
846;3162708.0;316270;São João do Paraíso;MG;31;0.0;-15.3168;-42.0213;0;0;0;0;0;0;0;0;0;1;1
847;4312203.0;431220;Maximiliano de Almeida;RS;43;0.0;-27.6325;-51.802;0;0;0;0;0;0;0;0;0;1;1
848;4314027.0;431402;Paraíso do Sul;RS;43;0.0;-29.6717;-53.144;0;0;0;0;0;0;0;0;0;1;1
849;4314001.0;431400;Paraí;RS;43;0.0;-28.5964;-51.7896;0;0;0;0;0;0;0;0;0;1;1
850;4313607.0;431360;Paim Filho;RS;43;0.0;-27.7075;-51.76300000000001;0;0;0;0;0;0;0;0;0;1;1
851;2933208.0;293320;Vera Cruz;BA;29;0.0;-12.9568;-38.6153;0;0;0;0;0;0;0;0;0;1;1
852;1504000.0;150400;Limoeiro do Ajuru;PA;15;0.0;-1.8985;-49.3903;0;0;0;0;0;0;0;0;0;1;1
853;1502905.0;150290;Curuçá;PA;15;0.0;-0.733214;-47.8515;0;0;0;0;0;0;0;0;0;1;1
854;1502806.0;150280;Curralinho;PA;15;0.0;-1.81179;-49.7952;0;0;0;0;0;0;0;0;0;1;1
855;4313201.0;431320;Nova Petrópolis;RS;43;0.0;-29.3741;-51.1136;0;0;0;0;0;0;0;0;0;1;1
856;4312906.0;431290;Nova Bassano;RS;43;0.0;-28.7291;-51.7072;0;0;0;0;0;0;0;0;0;1;1
857;3157906.0;315790;Santa Margarida;MG;31;0.0;-20.3839;-42.2519;0;0;0;0;0;0;0;0;0;1;1
858;1502301.0;150230;Capitão Poço;PA;15;0.0;-1.74785;-47.0629;0;0;0;0;0;0;0;0;0;1;1
859;2931509.0;293150;Teofilândia;BA;29;0.0;-11.4827;-38.9913;0;0;0;0;0;0;0;0;0;1;1
860;4305900.0;430590;Coronel Bicaco;RS;43;0.0;-27.7197;-53.7022;0;0;0;0;0;0;0;0;0;1;1
861;4308201.0;430820;Flores da Cunha;RS;43;0.0;-29.0261;-51.1875;0;0;0;0;0;0;0;0;0;1;1
862;4219606.0;421960;Xavantina;SC;42;0.0;-27.0667;-52.343;0;0;0;0;0;0;0;0;0;1;1
863;1507201.0;150720;São Domingos do Capim;PA;15;0.0;-1.6876799999999998;-47.7665;0;0;0;0;0;0;0;0;0;1;1
864;4219200.0;421920;Vidal Ramos;SC;42;0.0;-27.3886;-49.3593;0;0;0;0;0;0;0;0;0;1;1
865;4219101.0;421910;Vargeão;SC;42;0.0;-26.8621;-52.1549;0;0;0;0;0;0;0;0;0;1;1
866;4218756.0;421875;Tunápolis;SC;42;0.0;-26.9681;-53.6417;0;0;0;0;0;0;0;0;0;1;1
867;2928901.0;292890;São Desidério;BA;29;0.0;-12.3572;-44.9769;0;0;0;0;0;0;0;0;0;1;1
868;4218608.0;421860;Trombudo Central;SC;42;0.0;-27.3033;-49.793;0;0;0;0;0;0;0;0;0;1;1
869;4218301.0;421830;Três Barras;SC;42;0.0;-26.1056;-50.3197;0;0;0;0;0;0;0;0;0;1;1
870;1507474.0;150747;São João de Pirabas;PA;15;0.0;-0.780222;-47.181;0;0;0;0;0;0;0;0;0;1;1
871;4217907.0;421790;Tangará;SC;42;0.0;-27.0996;-51.2473;0;0;0;0;0;0;0;0;0;1;1
872;4217808.0;421780;Taió;SC;42;0.0;-27.121;-49.9942;0;0;0;0;0;0;0;0;0;1;1
873;4217709.0;421770;Sombrio;SC;42;0.0;-29.108;-49.6328;0;0;0;0;0;0;0;0;0;1;1
874;4217501.0;421750;Seara;SC;42;0.0;-27.1564;-52.299;0;0;0;0;0;0;0;0;0;1;1
875;4217303.0;421730;Saudades;SC;42;0.0;-26.9317;-53.0021;0;0;0;0;0;0;0;0;0;1;1
876;1507508.0;150750;São João do Araguaia;PA;15;0.0;-5.36334;-48.7926;0;0;0;0;0;0;0;0;0;1;1
877;3200201.0;320020;Alegre;ES;32;0.0;-20.758000000000006;-41.5382;0;0;0;0;0;0;0;0;0;1;1
878;4216701.0;421670;São José do Cedro;SC;42;0.0;-26.4561;-53.4955;0;0;0;0;0;0;0;0;0;1;1
879;3200409.0;320040;Anchieta;ES;32;0.0;-20.7955;-40.6425;0;0;0;0;0;0;0;0;0;1;1
880;3200805.0;320080;Baixo Guandu;ES;32;0.0;-19.5213;-41.0109;0;0;0;0;0;0;0;0;0;1;1
881;4216255.0;421625;São João do Oeste;SC;42;0.0;-27.0984;-53.5977;0;0;0;0;0;0;0;0;0;1;1
882;1507805.0;150780;Senador José Porfírio;PA;15;0.0;-4.31242;-51.5764;0;0;0;0;0;0;0;0;0;1;1
883;4215703.0;421570;Santo Amaro da Imperatriz;SC;42;0.0;-27.6852;-48.7813;0;0;0;0;0;0;0;0;0;1;1
884;4215505.0;421550;Santa Cecília;SC;42;0.0;-26.9592;-50.4252;0;0;0;0;0;0;0;0;0;1;1
885;4215307.0;421530;Salete;SC;42;0.0;-26.9798;-49.9988;0;0;0;0;0;0;0;0;0;1;1
886;1507904.0;150790;Soure;PA;15;0.0;-0.73032;-48.5015;0;0;0;0;0;0;0;0;0;1;1
887;2928208.0;292820;Santana;BA;29;0.0;-12.9792;-44.0506;0;0;0;0;0;0;0;0;0;1;1
888;2928000.0;292800;Santaluz;BA;29;0.0;-11.2508;-39.375;0;0;0;0;0;0;0;0;0;1;1
889;1508001.0;150800;Tomé-Açu;PA;15;0.0;-2.41302;-48.1415;0;0;0;0;0;0;0;0;0;1;1
890;4212908.0;421290;Pinhalzinho;SC;42;0.0;-26.8495;-52.9913;0;0;0;0;0;0;0;0;0;1;1
891;4212601.0;421260;Peritiba;SC;42;0.0;-27.3754;-51.9018;0;0;0;0;0;0;0;0;0;1;1
892;1507003.0;150700;Santo Antônio do Tauá;PA;15;0.0;-1.1522;-48.1314;0;0;0;0;0;0;0;0;0;1;1
893;3171709.0;317170;Virgínia;MG;31;0.0;-22.3264;-45.0965;0;0;0;0;0;0;0;0;0;1;1
894;3169208.0;316920;Tombos;MG;31;0.0;-20.9086;-42.0228;0;0;0;0;0;0;0;0;0;1;1
895;4300109.0;430010;Agudo;RS;43;0.0;-29.6447;-53.2515;0;0;0;0;0;0;0;0;0;1;1
896;1504802.0;150480;Monte Alegre;PA;15;0.0;-1.99768;-54.0724;0;0;0;0;0;0;0;0;0;1;1
897;1505031.0;150503;Novo Progresso;PA;15;0.0;-7.14347;-55.3786;0;0;0;0;0;0;0;0;0;1;1
898;2930758.0;293075;Sítio do Mato;BA;29;0.0;-13.0801;-43.4689;0;0;0;0;0;0;0;0;0;1;1
899;4307500.0;430750;Espumoso;RS;43;0.0;-28.7286;-52.8461;0;0;0;0;0;0;0;0;0;1;1
900;1505106.0;150510;Óbidos;PA;15;0.0;-1.90107;-55.5208;0;0;0;0;0;0;0;0;0;1;1
901;1505205.0;150520;Oeiras do Pará;PA;15;0.0;-2.00358;-49.8628;0;0;0;0;0;0;0;0;0;1;1
902;3169356.0;316935;Três Marias;MG;31;0.0;-18.2048;-45.2473;0;0;0;0;0;0;0;0;0;1;1
903;4306205.0;430620;Cruzeiro do Sul;RS;43;0.0;-29.5148;-51.9928;0;0;0;0;0;0;0;0;0;1;1
904;1505437.0;150543;Ourilândia do Norte;PA;15;0.0;-6.7529;-51.0858;0;0;0;0;0;0;0;0;0;1;1
905;4319158.0;431915;São Miguel das Missões;RS;43;0.0;-28.556;-54.5559;0;0;0;0;0;0;0;0;0;1;1
906;4305702.0;430570;Condor;RS;43;0.0;-28.2075;-53.4905;0;0;0;0;0;0;0;0;0;1;1
907;4305405.0;430540;Chiapetta;RS;43;0.0;-27.923;-53.9419;0;0;0;0;0;0;0;0;0;1;1
908;2930154.0;293015;Serra do Ramalho;BA;29;0.0;-13.5659;-43.5929;0;0;0;0;0;0;0;0;0;1;1
909;1505486.0;150548;Pacajá;PA;15;0.0;-3.83542;-50.6399;0;0;0;0;0;0;0;0;0;1;1
910;1505494.0;150549;Palestina do Pará;PA;15;0.0;-5.74027;-48.3181;0;0;0;0;0;0;0;0;0;1;1
911;2929602.0;292960;Sapeaçu;BA;29;0.0;-12.7208;-39.1824;0;0;0;0;0;0;0;0;0;1;1
912;1505809.0;150580;Portel;PA;15;0.0;-1.93639;-50.8194;0;0;0;0;0;0;0;0;0;1;1
913;1505908.0;150590;Porto de Moz;PA;15;0.0;-1.74691;-52.2361;0;0;0;0;0;0;0;0;0;1;1
914;4304002.0;430400;Campo Novo;RS;43;0.0;-27.6792;-53.8052;0;0;0;0;0;0;0;0;0;1;1
915;1506161.0;150616;Rio Maria;PA;15;0.0;-7.312360000000001;-50.0379;0;0;0;0;0;0;0;0;0;1;1
916;4303806.0;430380;Campinas do Sul;RS;43;0.0;-27.7174;-52.6248;0;0;0;0;0;0;0;0;0;1;1
917;4303608.0;430360;Cambará do Sul;RS;43;0.0;-29.0474;-50.1465;0;0;0;0;0;0;0;0;0;1;1
918;4303301.0;430330;Caibaté;RS;43;0.0;-28.2905;-54.6454;0;0;0;0;0;0;0;0;0;1;1
919;4302451.0;430245;Boqueirão do Leão;RS;43;0.0;-29.3046;-52.4284;0;0;0;0;0;0;0;0;0;1;1
920;4302303.0;430230;Bom Jesus;RS;43;0.0;-28.6697;-50.4295;0;0;0;0;0;0;0;0;0;1;1
921;3171204.0;317120;Vespasiano;MG;31;0.0;-19.6883;-43.9239;0;0;0;0;0;0;0;0;0;1;1
922;2929206.0;292920;São Francisco do Conde;BA;29;0.0;-12.6183;-38.6786;0;0;0;0;0;0;0;0;0;1;1
923;1506302.0;150630;Salvaterra;PA;15;0.0;-0.758444;-48.5139;0;0;0;0;0;0;0;0;0;1;1
924;4300208.0;430020;Ajuricaba;RS;43;0.0;-28.2342;-53.7757;0;0;0;0;0;0;0;0;0;1;1
925;3156809.0;315680;Sabinópolis;MG;31;0.0;-18.6653;-43.0752;0;0;0;0;0;0;0;0;0;1;1
926;4212007.0;421200;Palma Sola;SC;42;0.0;-26.3471;-53.2771;0;0;0;0;0;0;0;0;0;1;1
927;1501253.0;150125;Bannach;PA;15;0.0;-7.34779;-50.3959;0;0;0;0;0;0;0;0;0;1;1
928;1501204.0;150120;Baião;PA;15;0.0;-2.79021;-49.6694;0;0;0;0;0;0;0;0;0;1;1
929;5207535.0;520753;Faina;GO;52;0.0;-15.4473;-50.3622;0;0;0;0;0;0;0;0;0;1;1
930;5206206.0;520620;Cristalina;GO;52;0.0;-16.7676;-47.6131;0;0;0;0;0;0;0;0;0;1;1
931;5205513.0;520551;Cocalzinho de Goiás;GO;52;0.0;-15.7914;-48.7747;0;0;0;0;0;0;0;0;0;1;1
932;5205455.0;520545;Cezarina;GO;52;0.0;-16.9718;-49.7758;0;0;0;0;0;0;0;0;0;1;1
933;3115805.0;311580;Centralina;MG;31;0.0;-18.5852;-49.2014;0;0;0;0;0;0;0;0;0;1;1
934;3115508.0;311550;Caxambu;MG;31;0.0;-21.9753;-44.9319;0;0;0;0;0;0;0;0;0;1;1
935;5205000.0;520500;Carmo do Rio Verde;GO;52;0.0;-15.3549;-49.708;0;0;0;0;0;0;0;0;0;1;1
936;5204656.0;520465;Campinaçu;GO;52;0.0;-13.787;-48.5704;0;0;0;0;0;0;0;0;0;1;1
937;1301654.0;130165;Guajará;AM;13;0.0;-7.53797;-72.5907;0;0;0;0;0;0;0;0;0;1;1
938;3139607.0;313960;Mantena;MG;31;0.0;-18.7761;-40.9874;0;0;0;0;0;0;0;0;0;1;1
939;5203203.0;520320;Barro Alto;GO;52;0.0;-14.9658;-48.9086;0;0;0;0;0;0;0;0;0;1;1
940;5201504.0;520150;Aporé;GO;52;0.0;-18.9607;-51.9232;0;0;0;0;0;0;0;0;0;1;1
941;5105507.0;510550;Vila Bela da Santíssima Trindade;MT;51;0.0;-15.0068;-59.9504;0;0;0;0;0;0;0;0;0;1;1
942;5108105.0;510810;Tesouro;MT;51;0.0;-16.0809;-53.559;0;0;0;0;0;0;0;0;0;1;1
943;5108055.0;510805;Terra Nova do Norte;MT;51;0.0;-10.517;-55.231;0;0;0;0;0;0;0;0;0;1;1
944;5108006.0;510800;Tapurah;MT;51;0.0;-12.695;-56.5178;0;0;0;0;0;0;0;0;0;1;1
945;5107941.0;510794;Tabaporã;MT;51;0.0;-11.3007;-56.8312;0;0;0;0;0;0;0;0;0;1;1
946;1302801.0;130280;Maraã;AM;13;0.0;-1.85313;-65.57300000000001;0;0;0;0;0;0;0;0;0;1;1
947;5107875.0;510787;Sapezal;MT;51;0.0;-12.9892;-58.7645;0;0;0;0;0;0;0;0;0;1;1
948;5107800.0;510780;Santo Antônio do Leverger;MT;51;0.0;-15.8632;-56.0788;0;0;0;0;0;0;0;0;0;1;1
949;5107701.0;510770;Rosário Oeste;MT;51;0.0;-14.8259;-56.4236;0;0;0;0;0;0;0;0;0;1;1
950;1303007.0;130300;Nhamundá;AM;13;0.0;-2.20793;-56.7112;0;0;0;0;0;0;0;0;0;1;1
951;3142700.0;314270;Montalvânia;MG;31;0.0;-14.4197;-44.3719;0;0;0;0;0;0;0;0;0;1;1
952;3112703.0;311270;Capitão Enéas;MG;31;0.0;-16.3265;-43.7084;0;0;0;0;0;0;0;0;0;1;1
953;3111507.0;311150;Campos Altos;MG;31;0.0;-19.6914;-46.1725;0;0;0;0;0;0;0;0;0;1;1
954;3144003.0;314400;Mutum;MG;31;0.0;-19.8121;-41.4407;0;0;0;0;0;0;0;0;0;1;1
955;5106299.0;510629;Paranaíta;MT;51;0.0;-9.65835;-56.4786;0;0;0;0;0;0;0;0;0;1;1
956;5106273.0;510627;Novo Horizonte do Norte;MT;51;0.0;-11.4089;-57.3488;0;0;0;0;0;0;0;0;0;1;1
957;5106224.0;510622;Nova Mutum;MT;51;0.0;-13.8374;-56.0743;0;0;0;0;0;0;0;0;0;1;1
958;5208509.0;520850;Goiandira;GO;52;0.0;-18.1352;-48.0875;0;0;0;0;0;0;0;0;0;1;1
959;1300839.0;130083;Caapiranga;AM;13;0.0;-3.31537;-61.2206;0;0;0;0;0;0;0;0;0;1;1
960;5208806.0;520880;Goianira;GO;52;0.0;-16.4947;-49.427;0;0;0;0;0;0;0;0;0;1;1
961;5216403.0;521640;Paraúna;GO;52;0.0;-16.9463;-50.4484;0;0;0;0;0;0;0;0;0;1;1
962;1100452.0;110045;Buritis;RO;11;0.0;-10.1943;-63.8324;0;0;0;0;0;0;0;0;0;1;1
963;1100098.0;110009;Espigão D'Oeste;RO;11;0.0;-11.5266;-61.0252;0;0;0;0;0;0;0;0;0;1;1
964;5220405.0;522040;São Simão;GO;52;0.0;-18.996;-50.547;0;0;0;0;0;0;0;0;0;1;1
965;5220207.0;522020;São Miguel do Araguaia;GO;52;0.0;-13.2731;-50.1634;0;0;0;0;0;0;0;0;0;1;1
966;5219753.0;521975;Santo Antônio do Descoberto;GO;52;0.0;-15.9412;-48.2578;0;0;0;0;0;0;0;0;0;1;1
967;3125606.0;312560;Felisburgo;MG;31;0.0;-16.6348;-40.7605;0;0;0;0;0;0;0;0;0;1;1
968;1101492.0;110149;São Francisco do Guaporé;RO;11;0.0;-12.052;-63.56800000000001;0;0;0;0;0;0;0;0;0;1;1
969;5218607.0;521860;Rialma;GO;52;0.0;-15.3145;-49.5814;0;0;0;0;0;0;0;0;0;1;1
970;5217708.0;521770;Pontalina;GO;52;0.0;-17.5225;-49.4489;0;0;0;0;0;0;0;0;0;1;1
971;5217609.0;521760;Planaltina;GO;52;0.0;-15.452;-47.6089;0;0;0;0;0;0;0;0;0;1;1
972;3124104.0;312410;Esmeraldas;MG;31;0.0;-19.764;-44.3065;0;0;0;0;0;0;0;0;0;1;1
973;5217302.0;521730;Pirenópolis;GO;52;0.0;-15.8507;-48.9584;0;0;0;0;0;0;0;0;0;1;1
974;3123908.0;312390;Entre Rios de Minas;MG;31;0.0;-20.6706;-44.0654;0;0;0;0;0;0;0;0;0;1;1
975;3122702.0;312270;Dom Silvério;MG;31;0.0;-20.1627;-42.9627;0;0;0;0;0;0;0;0;0;1;1
976;1300631.0;130063;Beruri;AM;13;0.0;-3.89874;-61.3616;0;0;0;0;0;0;0;0;0;1;1
977;3135407.0;313540;Jeceaba;MG;31;0.0;-20.5339;-43.9894;0;0;0;0;0;0;0;0;0;1;1
978;1200450.0;120045;Senador Guiomard;AC;12;0.0;-10.1497;-67.7362;0;0;0;0;0;0;0;0;0;1;1
979;5214002.0;521400;Mozarlândia;GO;52;0.0;-14.7457;-50.5713;0;0;0;0;0;0;0;0;0;1;1
980;1300060.0;130006;Amaturá;AM;13;0.0;-3.37455;-68.2005;0;0;0;0;0;0;0;0;0;1;1
981;5213087.0;521308;Minaçu;GO;52;0.0;-13.5304;-48.2206;0;0;0;0;0;0;0;0;0;1;1
982;3122603.0;312260;Dom Joaquim;MG;31;0.0;-18.961;-43.2544;0;0;0;0;0;0;0;0;0;1;1
983;1300201.0;130020;Atalaia do Norte;AM;13;0.0;-4.37055;-70.1967;0;0;0;0;0;0;0;0;0;1;1
984;3137106.0;313710;Lagamar;MG;31;0.0;-18.1759;-46.8063;0;0;0;0;0;0;0;0;0;1;1
985;3121209.0;312120;Delfinópolis;MG;31;0.0;-20.3468;-46.8456;0;0;0;0;0;0;0;0;0;1;1
986;3137700.0;313770;Lajinha;MG;31;0.0;-20.1539;-41.6228;0;0;0;0;0;0;0;0;0;1;1
987;3137908.0;313790;Lamim;MG;31;0.0;-20.79;-43.4706;0;0;0;0;0;0;0;0;0;1;1
988;5209952.0;520995;Indiara;GO;52;0.0;-17.1387;-49.9862;0;0;0;0;0;0;0;0;0;1;1
989;3138005.0;313800;Laranjal;MG;31;0.0;-21.3715;-42.4732;0;0;0;0;0;0;0;0;0;1;1
990;3145000.0;314500;Nova Ponte;MG;31;0.0;-19.1461;-47.6779;0;0;0;0;0;0;0;0;0;1;1
991;5105606.0;510560;Matupá;MT;51;0.0;-10.1821;-54.9467;0;0;0;0;0;0;0;0;0;1;1
992;5105580.0;510558;Marcelândia;MT;51;0.0;-11.0463;-54.4377;0;0;0;0;0;0;0;0;0;1;1
993;1400605.0;140060;São Luiz;RR;14;0.0;1.01019;-60.0419;0;0;0;0;0;0;0;0;0;1;1
994;1400159.0;140015;Bonfim;RR;14;0.0;3.36161;-59.8333;0;0;0;0;0;0;0;0;0;1;1
995;5002803.0;500280;Caracol;MS;50;0.0;-22.011;-57.0277;0;0;0;0;0;0;0;0;0;1;1
996;1400308.0;140030;Mucajaí;RR;14;0.0;2.43998;-60.9096;0;0;0;0;0;0;0;0;0;1;1
997;5002605.0;500260;Camapuã;MS;50;0.0;-19.5347;-54.0431;0;0;0;0;0;0;0;0;0;1;1
998;5002100.0;500210;Bela Vista;MS;50;0.0;-22.1073;-56.5263;0;0;0;0;0;0;0;0;0;1;1
999;5001243.0;500124;Aral Moreira;MS;50;0.0;-22.9385;-55.6334;0;0;0;0;0;0;0;0;0;1;1
1000;1400407.0;140040;Normandia;RR;14;0.0;3.8853;-59.6204;0;0;0;0;0;0;0;0;0;1;1
1001;1400456.0;140045;Pacaraima;RR;14;0.0;4.4799;-61.1477;0;0;0;0;0;0;0;0;0;1;1
1002;3152006.0;315200;Pompéu;MG;31;0.0;-19.2257;-45.0141;0;0;0;0;0;0;0;0;0;1;1
1003;4322707.0;432270;Vera Cruz;RS;43;0.0;-29.7184;-52.5152;0;0;0;0;0;0;0;0;0;1;1
1004;1400472.0;140047;Rorainópolis;RR;14;0.0;0.939956;-60.4389;0;0;0;0;0;0;0;0;0;1;1
1005;4322533.0;432253;Vale do Sol;RS;43;0.0;-29.5967;-52.6839;0;0;0;0;0;0;0;0;0;1;1
1006;1400506.0;140050;São João da Baliza;RR;14;0.0;0.951659;-59.9133;0;0;0;0;0;0;0;0;0;1;1
1007;4322301.0;432230;Tuparendi;RS;43;0.0;-27.7598;-54.4814;0;0;0;0;0;0;0;0;0;1;1
1008;5003488.0;500348;Dois Irmãos do Buriti;MS;50;0.0;-20.6848;-55.2915;0;0;0;0;0;0;0;0;0;1;1
1009;4321956.0;432195;Trindade do Sul;RS;43;0.0;-27.5239;-52.8956;0;0;0;0;0;0;0;0;0;1;1
1010;1500131.0;150013;Abel Figueiredo;PA;15;0.0;-4.95333;-48.3933;0;0;0;0;0;0;0;0;0;1;1
1011;3152808.0;315280;Prata;MG;31;0.0;-19.3086;-48.9276;0;0;0;0;0;0;0;0;0;1;1
1012;1500701.0;150070;Anajás;PA;15;0.0;-0.996811;-49.9354;0;0;0;0;0;0;0;0;0;1;1
1013;1500859.0;150085;Anapu;PA;15;0.0;-3.46985;-51.2003;0;0;0;0;0;0;0;0;0;1;1
1014;4321303.0;432130;Taquari;RS;43;0.0;-29.7943;-51.8653;0;0;0;0;0;0;0;0;0;1;1
1015;1501105.0;150110;Bagre;PA;15;0.0;-1.90057;-50.1987;0;0;0;0;0;0;0;0;0;1;1
1016;4321105.0;432110;Tapes;RS;43;0.0;-30.6683;-51.3991;0;0;0;0;0;0;0;0;0;1;1
1017;3154200.0;315420;Resende Costa;MG;31;0.0;-20.9171;-44.2407;0;0;0;0;0;0;0;0;0;1;1
1018;3155504.0;315550;Rio Paranaíba;MG;31;0.0;-19.1861;-46.2455;0;0;0;0;0;0;0;0;0;1;1
1019;4320503.0;432050;Sertão;RS;43;0.0;-27.9798;-52.2588;0;0;0;0;0;0;0;0;0;1;1
1020;4320206.0;432020;Seberi;RS;43;0.0;-27.4829;-53.4026;0;0;0;0;0;0;0;0;0;1;1
1021;4320107.0;432010;Sarandi;RS;43;0.0;-27.942;-52.9231;0;0;0;0;0;0;0;0;0;1;1
1022;5003256.0;500325;Costa Rica;MS;50;0.0;-18.5432;-53.1287;0;0;0;0;0;0;0;0;0;1;1
1023;1400050.0;140005;Alto Alegre;RR;14;0.0;2.98858;-61.3072;0;0;0;0;0;0;0;0;0;1;1
1024;1303502.0;130350;Pauini;AM;13;0.0;-7.71311;-66.992;0;0;0;0;0;0;0;0;0;1;1
1025;3105905.0;310590;Barroso;MG;31;0.0;-21.1907;-43.972;0;0;0;0;0;0;0;0;0;1;1
1026;5105176.0;510517;Juruena;MT;51;0.0;-10.3178;-58.3592;0;0;0;0;0;0;0;0;0;1;1
1027;3109907.0;310990;Caetanópolis;MG;31;0.0;-19.2971;-44.4189;0;0;0;0;0;0;0;0;0;1;1
1028;5105002.0;510500;Jauru;MT;51;0.0;-15.3342;-58.8723;0;0;0;0;0;0;0;0;0;1;1
1029;5104609.0;510460;Itiquira;MT;51;0.0;-17.2147;-54.1422;0;0;0;0;0;0;0;0;0;1;1
1030;5104203.0;510420;Guiratinga;MT;51;0.0;-16.346;-53.7575;0;0;0;0;0;0;0;0;0;1;1
1031;3109006.0;310900;Brumadinho;MG;31;0.0;-20.151;-44.2007;0;0;0;0;0;0;0;0;0;1;1
1032;3108404.0;310840;Botelhos;MG;31;0.0;-21.6412;-46.39100000000001;0;0;0;0;0;0;0;0;0;1;1
1033;5103379.0;510337;Cotriguaçu;MT;51;0.0;-9.85656;-58.4192;0;0;0;0;0;0;0;0;0;1;1
1034;3107505.0;310750;Bom Jardim de Minas;MG;31;0.0;-21.9479;-44.1885;0;0;0;0;0;0;0;0;0;1;1
1035;1303700.0;130370;Santo Antônio do Içá;AM;13;0.0;-3.09544;-67.9463;0;0;0;0;0;0;0;0;0;1;1
1036;5102686.0;510268;Campos de Júlio;MT;51;0.0;-13.7242;-59.2858;0;0;0;0;0;0;0;0;0;1;1
1037;5102678.0;510267;Campo Verde;MT;51;0.0;-15.545;-55.1626;0;0;0;0;0;0;0;0;0;1;1
1038;1304005.0;130400;Silves;AM;13;0.0;-2.81748;-58.24800000000001;0;0;0;0;0;0;0;0;0;1;1
1039;5101605.0;510160;Barão de Melgaço;MT;51;0.0;-16.2067;-55.9623;0;0;0;0;0;0;0;0;0;1;1
1040;5003751.0;500375;Eldorado;MS;50;0.0;-23.7868;-54.2838;0;0;0;0;0;0;0;0;0;1;1
1041;5100607.0;510060;Alto Taquari;MT;51;0.0;-17.8241;-53.2792;0;0;0;0;0;0;0;0;0;1;1
1042;3105400.0;310540;Barão de Cocais;MG;31;0.0;-19.9389;-43.4755;0;0;0;0;0;0;0;0;0;1;1
1043;3148707.0;314870;Pedra Azul;MG;31;0.0;-16.0086;-41.2909;0;0;0;0;0;0;0;0;0;1;1
1044;5007307.0;500730;Rio Negro;MS;50;0.0;-19.447;-54.9859;0;0;0;0;0;0;0;0;0;1;1
1045;5006903.0;500690;Porto Murtinho;MS;50;0.0;-21.6981;-57.8836;0;0;0;0;0;0;0;0;0;1;1
1046;1304260.0;130426;Uarini;AM;13;0.0;-2.99609;-65.1133;0;0;0;0;0;0;0;0;0;1;1
1047;1304302.0;130430;Urucará;AM;13;0.0;-2.52936;-57.7538;0;0;0;0;0;0;0;0;0;1;1
1048;5005608.0;500560;Miranda;MS;50;0.0;-20.2355;-56.3746;0;0;0;0;0;0;0;0;0;1;1
1049;5005251.0;500525;Laguna Carapã;MS;50;0.0;-22.5448;-55.1502;0;0;0;0;0;0;0;0;0;1;1
1050;5004700.0;500470;Ivinhema;MS;50;0.0;-22.3046;-53.8184;0;0;0;0;0;0;0;0;0;1;1
1051;5004601.0;500460;Itaquiraí;MS;50;0.0;-23.4779;-54.187;0;0;0;0;0;0;0;0;0;1;1
1052;5004502.0;500450;Itaporã;MS;50;0.0;-22.08;-54.7934;0;0;0;0;0;0;0;0;0;1;1
1053;5003801.0;500380;Fátima do Sul;MS;50;0.0;-22.3789;-54.5131;0;0;0;0;0;0;0;0;0;1;1
1054;3201704.0;320170;Conceição do Castelo;ES;32;0.0;-20.3639;-41.2417;0;0;0;0;0;0;0;0;0;1;1
1055;3129400.0;312940;Ibertioga;MG;31;0.0;-21.433000000000003;-43.9639;0;0;0;0;0;0;0;0;0;1;1
1056;2109270.0;210927;Presidente Sarney;MA;21;0.0;-2.58799;-45.3595;0;0;0;0;0;0;0;0;0;1;1
1057;2110609.0;211060;São Bernardo;MA;21;0.0;-3.3722300000000005;-42.4191;0;0;0;0;0;0;0;0;0;1;1
1058;4103057.0;410305;Boa Vista da Aparecida;PR;41;0.0;-25.4308;-53.4117;0;0;0;0;0;0;0;0;0;1;1
1059;4102505.0;410250;Barbosa Ferraz;PR;41;0.0;-24.0334;-52.004;0;0;0;0;0;0;0;0;0;1;1
1060;2914653.0;291465;Itabela;BA;29;0.0;-16.5732;-39.5593;0;0;0;0;0;0;0;0;0;1;1
1061;4102109.0;410210;Astorga;PR;41;0.0;-23.2318;-51.6668;0;0;0;0;0;0;0;0;0;1;1
1062;3304128.0;330412;Quatis;RJ;33;0.0;-22.4045;-44.2597;0;0;0;0;0;0;0;0;0;1;1
1063;4101705.0;410170;Araruna;PR;41;0.0;-23.9315;-52.5021;0;0;0;0;0;0;0;0;0;1;1
1064;4101606.0;410160;Arapoti;PR;41;0.0;-24.1548;-49.8285;0;0;0;0;0;0;0;0;0;1;1
1065;2110237.0;211023;Santana do Maranhão;MA;21;0.0;-3.109;-42.4064;0;0;0;0;0;0;0;0;0;1;1
1066;4101200.0;410120;Antonina;PR;41;0.0;-25.4386;-48.7191;0;0;0;0;0;0;0;0;0;1;1
1067;4101002.0;410100;Ampére;PR;41;0.0;-25.9168;-53.4686;0;0;0;0;0;0;0;0;0;1;1
1068;4100905.0;410090;Amaporã;PR;41;0.0;-23.0943;-52.7866;0;0;0;0;0;0;0;0;0;1;1
1069;2110500.0;211050;São Bento;MA;21;0.0;-2.69781;-44.8289;0;0;0;0;0;0;0;0;0;1;1
1070;2111052.0;211105;São João do Paraíso;MA;21;0.0;-6.45634;-47.0594;0;0;0;0;0;0;0;0;0;1;1
1071;4112405.0;411240;Japurá;PR;41;0.0;-23.4693;-52.5557;0;0;0;0;0;0;0;0;0;1;1
1072;2900108.0;290010;Abaíra;BA;29;0.0;-13.2488;-41.6619;0;0;0;0;0;0;0;0;0;1;1
1073;3555406.0;355540;Ubatuba;SP;35;0.0;-23.4332;-45.0834;0;0;0;0;0;0;0;0;0;1;1
1074;2913408.0;291340;Igaporã;BA;29;0.0;-13.774;-42.7155;0;0;0;0;0;0;0;0;0;1;1
1075;3554508.0;355450;Tietê;SP;35;0.0;-23.1101;-47.7164;0;0;0;0;0;0;0;0;0;1;1
1076;2112308.0;211230;Tuntum;MA;21;0.0;-5.25476;-44.6444;0;0;0;0;0;0;0;0;0;1;1
1077;2112506.0;211250;Tutóia;MA;21;0.0;-2.76141;-42.2755;0;0;0;0;0;0;0;0;0;1;1
1078;3553807.0;355380;Taquarituba;SP;35;0.0;-23.5307;-49.24100000000001;0;0;0;0;0;0;0;0;0;1;1
1079;3553005.0;355300;Taguaí;SP;35;0.0;-23.4452;-49.4024;0;0;0;0;0;0;0;0;0;1;1
1080;2912004.0;291200;Ibiassucê;BA;29;0.0;-14.2711;-42.257;0;0;0;0;0;0;0;0;0;1;1
1081;2200301.0;220030;Alto Longá;PI;22;0.0;-5.25634;-42.2096;0;0;0;0;0;0;0;0;0;1;1
1082;2200400.0;220040;Altos;PI;22;0.0;-5.038880000000002;-42.4612;0;0;0;0;0;0;0;0;0;1;1
1083;2201200.0;220120;Barras;PI;22;0.0;-4.244680000000002;-42.2922;0;0;0;0;0;0;0;0;0;1;1
1084;4103305.0;410330;Borrazópolis;PR;41;0.0;-23.9366;-51.5875;0;0;0;0;0;0;0;0;0;1;1
1085;2109403.0;210940;Primeira Cruz;MA;21;0.0;-2.50568;-43.4232;0;0;0;0;0;0;0;0;0;1;1
1086;4211405.0;421140;Nova Erechim;SC;42;0.0;-26.8982;-52.9066;0;0;0;0;0;0;0;0;0;1;1
1087;3304003.0;330400;Piraí;RJ;33;0.0;-22.6215;-43.9081;0;0;0;0;0;0;0;0;0;1;1
1088;4111902.0;411190;Jaguapitã;PR;41;0.0;-23.1104;-51.5342;0;0;0;0;0;0;0;0;0;1;1
1089;2806701.0;280670;São Cristóvão;SE;28;0.0;-11.0084;-37.2044;0;0;0;0;0;0;0;0;0;1;1
1090;3528502.0;352850;Mairiporã;SP;35;0.0;-23.3171;-46.5897;0;0;0;0;0;0;0;0;0;1;1
1091;2106300.0;210630;Magalhães de Almeida;MA;21;0.0;-3.39232;-42.2117;0;0;0;0;0;0;0;0;0;1;1
1092;4111258.0;411125;Itaperuçu;PR;41;0.0;-25.2193;-49.3454;0;0;0;0;0;0;0;0;0;1;1
1093;4111100.0;411110;Itambé;PR;41;0.0;-23.6601;-51.9912;0;0;0;0;0;0;0;0;0;1;1
1094;2917359.0;291735;Jaborandi;BA;29;0.0;-13.6071;-44.4255;0;0;0;0;0;0;0;0;0;1;1
1095;4109757.0;410975;Ibema;PR;41;0.0;-25.1193;-53.0072;0;0;0;0;0;0;0;0;0;1;1
1096;3507902.0;350790;Brotas;SP;35;0.0;-22.2795;-48.1251;0;0;0;0;0;0;0;0;0;1;1
1097;2916708.0;291670;Itaquara;BA;29;0.0;-13.4459;-39.9378;0;0;0;0;0;0;0;0;0;1;1
1098;2107100.0;210710;Morros;MA;21;0.0;-2.85379;-44.0357;0;0;0;0;0;0;0;0;0;1;1
1099;2107308.0;210730;Nova Iorque;MA;21;0.0;-6.73047;-44.0471;0;0;0;0;0;0;0;0;0;1;1
1100;2915304.0;291530;Itagimirim;BA;29;0.0;-16.0819;-39.6133;0;0;0;0;0;0;0;0;0;1;1
1101;2914901.0;291490;Itacaré;BA;29;0.0;-14.2784;-38.9959;0;0;0;0;0;0;0;0;0;1;1
1102;3303807.0;330380;Paraty;RJ;33;0.0;-23.2221;-44.7175;0;0;0;0;0;0;0;0;0;1;1
1103;2107605.0;210760;Palmeirândia;MA;21;0.0;-2.64433;-44.8933;0;0;0;0;0;0;0;0;0;1;1
1104;4106308.0;410630;Corbélia;PR;41;0.0;-24.7971;-53.3006;0;0;0;0;0;0;0;0;0;1;1
1105;2914703.0;291470;Itaberaba;BA;29;0.0;-12.5242;-40.3059;0;0;0;0;0;0;0;0;0;1;1
1106;4105607.0;410560;Cidade Gaúcha;PR;41;0.0;-23.3772;-52.9436;0;0;0;0;0;0;0;0;0;1;1
1107;2108058.0;210805;Paulino Neves;MA;21;0.0;-2.72094;-42.5258;0;0;0;0;0;0;0;0;0;1;1
1108;3303955.0;330395;Pinheiral;RJ;33;0.0;-22.5172;-44.0022;0;0;0;0;0;0;0;0;0;1;1
1109;2108504.0;210850;Pindaré-Mirim;MA;21;0.0;-3.60985;-45.342;0;0;0;0;0;0;0;0;0;1;1
1110;4104600.0;410460;Capitão Leônidas Marques;PR;41;0.0;-25.4816;-53.6112;0;0;0;0;0;0;0;0;0;1;1
1111;4104501.0;410450;Capanema;PR;41;0.0;-25.6691;-53.8055;0;0;0;0;0;0;0;0;0;1;1
1112;2108801.0;210880;Pirapemas;MA;21;0.0;-3.72041;-44.2216;0;0;0;0;0;0;0;0;0;1;1
1113;2204303.0;220430;Fronteiras;PI;22;0.0;-7.08173;-40.6146;0;0;0;0;0;0;0;0;0;1;1
1114;2207900.0;220790;Pedro II;PI;22;0.0;-4.42585;-41.4482;0;0;0;0;0;0;0;0;0;1;1
1115;3522802.0;352280;Itaporanga;SP;35;0.0;-23.7043;-49.4819;0;0;0;0;0;0;0;0;0;1;1
1116;2903409.0;290340;Belmonte;BA;29;0.0;-15.8608;-38.8758;0;0;0;0;0;0;0;0;0;1;1
1117;2909109.0;290910;Coribe;BA;29;0.0;-13.8232;-44.4586;0;0;0;0;0;0;0;0;0;1;1
1118;2311355.0;231135;Quixelô;CE;23;0.0;-6.24637;-39.2011;0;0;0;0;0;0;0;0;0;1;1
1119;2311801.0;231180;Russas;CE;23;0.0;-4.92673;-37.9721;0;0;0;0;0;0;0;0;0;1;1
1120;2311900.0;231190;Saboeiro;CE;23;0.0;-6.5346;-39.9017;0;0;0;0;0;0;0;0;0;1;1
1121;2908705.0;290870;Condeúba;BA;29;0.0;-14.9022;-41.9718;0;0;0;0;0;0;0;0;0;1;1
1122;2313104.0;231310;Tabuleiro do Norte;CE;23;0.0;-5.243530000000002;-38.1282;0;0;0;0;0;0;0;0;0;1;1
1123;2903904.0;290390;Bom Jesus da Lapa;BA;29;0.0;-13.2506;-43.4108;0;0;0;0;0;0;0;0;0;1;1
1124;2908101.0;290810;Cocos;BA;29;0.0;-14.1814;-44.5352;0;0;0;0;0;0;0;0;0;1;1
1125;2906907.0;290690;Caravelas;BA;29;0.0;-17.7268;-39.2597;0;0;0;0;0;0;0;0;0;1;1
1126;2905909.0;290590;Campo Alegre de Lourdes;BA;29;0.0;-9.52221;-43.0126;0;0;0;0;0;0;0;0;0;1;1
1127;3534609.0;353460;Osvaldo Cruz;SP;35;0.0;-21.7968;-50.8793;0;0;0;0;0;0;0;0;0;1;1
1128;2905503.0;290550;Caldeirão Grande;BA;29;0.0;-11.0208;-40.2956;0;0;0;0;0;0;0;0;0;1;1
1129;2905206.0;290520;Caetité;BA;29;0.0;-14.0684;-42.4861;0;0;0;0;0;0;0;0;0;1;1
1130;2904506.0;290450;Brotas de Macaúbas;BA;29;0.0;-11.9915;-42.6326;0;0;0;0;0;0;0;0;0;1;1
1131;2405207.0;240520;Janduís;RN;24;0.0;-6.01474;-37.4048;0;0;0;0;0;0;0;0;0;1;1
1132;2505709.0;250570;Dona Inês;PB;25;0.0;-6.615660000000001;-35.6205;0;0;0;0;0;0;0;0;0;1;1
1133;2406106.0;240610;Jucurutu;RN;24;0.0;-6.0306;-37.009;0;0;0;0;0;0;0;0;0;1;1
1134;2504801.0;250480;Coremas;PB;25;0.0;-7.00712;-37.9346;0;0;0;0;0;0;0;0;0;1;1
1135;2411205.0;241120;Santa Cruz;RN;24;0.0;-6.22475;-36.0193;0;0;0;0;0;0;0;0;0;1;1
1136;2411403.0;241140;Santana do Matos;RN;24;0.0;-5.94605;-36.6578;0;0;0;0;0;0;0;0;0;1;1
1137;2504405.0;250440;Conceição;PB;25;0.0;-7.55106;-38.5014;0;0;0;0;0;0;0;0;0;1;1
1138;2904902.0;290490;Cachoeira;BA;29;0.0;-12.5994;-38.9587;0;0;0;0;0;0;0;0;0;1;1
1139;2412807.0;241280;São Rafael;RN;24;0.0;-5.79791;-36.8778;0;0;0;0;0;0;0;0;0;1;1
1140;2413359.0;241335;Serra do Mel;RN;24;0.0;-5.17725;-37.0242;0;0;0;0;0;0;0;0;0;1;1
1141;2500403.0;250040;Alagoa Nova;PB;25;0.0;-7.05377;-35.7591;0;0;0;0;0;0;0;0;0;1;1
1142;3505302.0;350530;Barra Bonita;SP;35;0.0;-22.4909;-48.5583;0;0;0;0;0;0;0;0;0;1;1
1143;2310605.0;231060;Penaforte;CE;23;0.0;-7.82163;-39.0707;0;0;0;0;0;0;0;0;0;1;1
1144;2210508.0;221050;São Pedro do Piauí;PI;22;0.0;-5.9207800000000015;-42.7192;0;0;0;0;0;0;0;0;0;1;1
1145;2310308.0;231030;Parambu;CE;23;0.0;-6.20768;-40.6905;0;0;0;0;0;0;0;0;0;1;1
1146;2602605.0;260260;Brejo da Madre de Deus;PE;26;0.0;-8.14933;-36.3741;0;0;0;0;0;0;0;0;0;1;1
1147;2901007.0;290100;Amargosa;BA;29;0.0;-13.0215;-39.602;0;0;0;0;0;0;0;0;0;1;1
1148;2211100.0;221110;União;PI;22;0.0;-4.58571;-42.8583;0;0;0;0;0;0;0;0;0;1;1
1149;2300408.0;230040;Aiuaba;CE;23;0.0;-6.5712199999999985;-40.1178;0;0;0;0;0;0;0;0;0;1;1
1150;2300705.0;230070;Alto Santo;CE;23;0.0;-5.50894;-38.2743;0;0;0;0;0;0;0;0;0;1;1
1151;2910701.0;291070;Euclides da Cunha;BA;29;0.0;-10.5078;-39.0153;0;0;0;0;0;0;0;0;0;1;1
1152;3523602.0;352360;Itirapina;SP;35;0.0;-22.2562;-47.8166;0;0;0;0;0;0;0;0;0;1;1
1153;3305158.0;330515;São José do Vale do Rio Preto;RJ;33;0.0;-22.1525;-42.9327;0;0;0;0;0;0;0;0;0;1;1
1154;2902906.0;290290;Barra do Choça;BA;29;0.0;-14.8654;-40.5791;0;0;0;0;0;0;0;0;0;1;1
1155;3305208.0;330520;São Pedro da Aldeia;RJ;33;0.0;-22.8429;-42.1026;0;0;0;0;0;0;0;0;0;1;1
1156;3305307.0;330530;São Sebastião do Alto;RJ;33;0.0;-21.9578;-42.1328;0;0;0;0;0;0;0;0;0;1;1
1157;2910404.0;291040;Encruzilhada;BA;29;0.0;-15.5302;-40.9124;0;0;0;0;0;0;0;0;0;1;1
1158;2305308.0;230530;Ibiapina;CE;23;0.0;-3.92403;-40.8911;0;0;0;0;0;0;0;0;0;1;1
1159;2514305.0;251430;São José de Caiana;PB;25;0.0;-7.246360000000001;-38.2989;0;0;0;0;0;0;0;0;0;1;1
1160;2909703.0;290970;Cristópolis;BA;29;0.0;-12.2249;-44.4214;0;0;0;0;0;0;0;0;0;1;1
1161;2306801.0;230680;Jaguaribara;CE;23;0.0;-5.67765;-38.5359;0;0;0;0;0;0;0;0;0;1;1
1162;2512507.0;251250;Queimadas;PB;25;0.0;-7.350289999999997;-35.9031;0;0;0;0;0;0;0;0;0;1;1
1163;3544004.0;354400;Rio das Pedras;SP;35;0.0;-22.8417;-47.6047;0;0;0;0;0;0;0;0;0;1;1
1164;2512309.0;251230;Princesa Isabel;PB;25;0.0;-7.73175;-37.9886;0;0;0;0;0;0;0;0;0;1;1
1165;2307809.0;230780;Marco;CE;23;0.0;-3.1285;-40.1582;0;0;0;0;0;0;0;0;0;1;1
1166;2308401.0;230840;Missão Velha;CE;23;0.0;-7.23522;-39.143;0;0;0;0;0;0;0;0;0;1;1
1167;2903276.0;290327;Barrocas;BA;29;0.0;-11.5272;-39.0776;0;0;0;0;0;0;0;0;0;1;1
1168;2909307.0;290930;Correntina;BA;29;0.0;-13.3477;-44.6333;0;0;0;0;0;0;0;0;0;1;1
